[{"name":"Shanghai","lat":31.22222,"lng":121.45806,"minZoom":3},{"name":"Istanbul","lat":41.01384,"lng":28.94966,"minZoom":3},{"name":"Buenos Aires","lat":-34.61315,"lng":-58.37723,"minZoom":3},{"name":"Mumbai","lat":19.07283,"lng":72.88261,"minZoom":3},{"name":"Mexico City","lat":19.42847,"lng":-99.12766,"minZoom":3},{"name":"Beijing","lat":39.9075,"lng":116.39723,"minZoom":3},{"name":"Karachi","lat":24.8608,"lng":67.0104,"minZoom":3},{"name":"Tianjin","lat":39.14222,"lng":117.17667,"minZoom":3},{"name":"Guangzhou","lat":23.11667,"lng":113.25,"minZoom":3},{"name":"Delhi","lat":28.65195,"lng":77.23149,"minZoom":3},{"name":"Moscow","lat":55.75222,"lng":37.61556,"minZoom":3},{"name":"Shenzhen","lat":22.54554,"lng":114.0683,"minZoom":3},{"name":"Dhaka","lat":23.7104,"lng":90.40744,"minZoom":3},{"name":"Seoul","lat":37.566,"lng":126.9784,"minZoom":3},{"name":"São Paulo","lat":-23.5475,"lng":-46.63611,"minZoom":3},{"name":"Wuhan","lat":30.58333,"lng":114.26667,"minZoom":3},{"name":"Lagos","lat":6.45407,"lng":3.39467,"minZoom":3},{"name":"Jakarta","lat":-6.21462,"lng":106.84513,"minZoom":3},{"name":"Tokyo","lat":35.6895,"lng":139.69171,"minZoom":3},{"name":"New York City","lat":40.71427,"lng":-74.00597,"minZoom":3},{"name":"Dongguan","lat":23.01797,"lng":113.74866,"minZoom":3},{"name":"Taipei","lat":25.04776,"lng":121.53185,"minZoom":3},{"name":"Kinshasa","lat":-4.32758,"lng":15.31357,"minZoom":3},{"name":"Lima","lat":-12.04318,"lng":-77.02824,"minZoom":3},{"name":"Cairo","lat":30.06263,"lng":31.24967,"minZoom":3},{"name":"Bogotá","lat":4.60971,"lng":-74.08175,"minZoom":3},{"name":"London","lat":51.50853,"lng":-0.12574,"minZoom":3},{"name":"Chongqing","lat":29.56278,"lng":106.55278,"minZoom":3},{"name":"Chengdu","lat":30.66667,"lng":104.06667,"minZoom":3},{"name":"Baghdad","lat":33.34058,"lng":44.40088,"minZoom":3},{"name":"Nanjing","lat":32.06167,"lng":118.77778,"minZoom":3},{"name":"Tehran","lat":35.69439,"lng":51.42151,"minZoom":3},{"name":"Nanchong","lat":30.79508,"lng":106.08473,"minZoom":3},{"name":"Hong Kong","lat":22.27832,"lng":114.17469,"minZoom":3},{"name":"Xi’an","lat":34.25833,"lng":108.92861,"minZoom":3},{"name":"Lahore","lat":31.558,"lng":74.35071,"minZoom":3},{"name":"Shenyang","lat":41.79222,"lng":123.43278,"minZoom":3},{"name":"Hangzhou","lat":30.29365,"lng":120.16142,"minZoom":3},{"name":"Rio de Janeiro","lat":-22.90642,"lng":-43.18223,"minZoom":3},{"name":"Harbin","lat":45.75,"lng":126.65,"minZoom":3},{"name":"Tai’an","lat":36.18528,"lng":117.12,"minZoom":3},{"name":"Suzhou","lat":31.30408,"lng":120.59538,"minZoom":3},{"name":"Shantou","lat":23.36814,"lng":116.71479,"minZoom":3},{"name":"Bangkok","lat":13.75398,"lng":100.50144,"minZoom":3},{"name":"Bengaluru","lat":12.97194,"lng":77.59369,"minZoom":3},{"name":"Saint Petersburg","lat":59.93863,"lng":30.31413,"minZoom":3},{"name":"Santiago","lat":-33.45694,"lng":-70.64827,"minZoom":4},{"name":"Kolkata","lat":22.56263,"lng":88.36304,"minZoom":4},{"name":"Sydney","lat":-33.86785,"lng":151.20732,"minZoom":4},{"name":"Yangon","lat":16.80528,"lng":96.15611,"minZoom":4},{"name":"Jinan","lat":36.66833,"lng":116.99722,"minZoom":4},{"name":"Chennai","lat":13.08784,"lng":80.27847,"minZoom":4},{"name":"Zhengzhou","lat":34.75778,"lng":113.64861,"minZoom":4},{"name":"Melbourne","lat":-37.814,"lng":144.96332,"minZoom":4},{"name":"Riyadh","lat":24.68773,"lng":46.72185,"minZoom":4},{"name":"Changchun","lat":43.88,"lng":125.32278,"minZoom":4},{"name":"Dalian","lat":38.91222,"lng":121.60222,"minZoom":4},{"name":"Los Angeles","lat":34.05223,"lng":-118.24368,"minZoom":4},{"name":"Chittagong","lat":22.3384,"lng":91.83168,"minZoom":4},{"name":"Kunming","lat":25.03889,"lng":102.71833,"minZoom":4},{"name":"Alexandria","lat":31.20176,"lng":29.91582,"minZoom":4},{"name":"Ahmedabad","lat":23.02579,"lng":72.58727,"minZoom":4},{"name":"Qingdao","lat":36.06488,"lng":120.38042,"minZoom":4},{"name":"Busan","lat":35.10168,"lng":129.03004,"minZoom":4},{"name":"Abidjan","lat":5.35444,"lng":-4.00167,"minZoom":4},{"name":"Kano","lat":12.00012,"lng":8.51672,"minZoom":4},{"name":"Foshan","lat":23.02677,"lng":113.13148,"minZoom":4},{"name":"Hyderabad","lat":17.38405,"lng":78.45636,"minZoom":4},{"name":"Puyang","lat":29.45679,"lng":119.88872,"minZoom":4},{"name":"Yokohama","lat":35.43333,"lng":139.65,"minZoom":4},{"name":"Ibadan","lat":7.37756,"lng":3.90591,"minZoom":4},{"name":"Singapore","lat":1.28967,"lng":103.85007,"minZoom":4},{"name":"Wuxi","lat":31.56887,"lng":120.28857,"minZoom":4},{"name":"Xiamen","lat":24.47979,"lng":118.08187,"minZoom":4},{"name":"Ankara","lat":39.91987,"lng":32.85427,"minZoom":4},{"name":"Tianshui","lat":34.57952,"lng":105.74238,"minZoom":4},{"name":"Ningbo","lat":29.87819,"lng":121.54945,"minZoom":4},{"name":"Ho Chi Minh City","lat":10.82302,"lng":106.62965,"minZoom":4},{"name":"Shiyan","lat":32.6475,"lng":110.77806,"minZoom":4},{"name":"Cape Town","lat":-33.92584,"lng":18.42322,"minZoom":4},{"name":"Taiyuan","lat":37.86944,"lng":112.56028,"minZoom":4},{"name":"Berlin","lat":52.52437,"lng":13.41053,"minZoom":4},{"name":"Tangshan","lat":39.63333,"lng":118.18333,"minZoom":4},{"name":"Hefei","lat":31.86389,"lng":117.28083,"minZoom":4},{"name":"Madrid","lat":40.4165,"lng":-3.70256,"minZoom":4},{"name":"Pyongyang","lat":39.03385,"lng":125.75432,"minZoom":4},{"name":"Casablanca","lat":33.58831,"lng":-7.61138,"minZoom":4},{"name":"Zibo","lat":36.79056,"lng":118.06333,"minZoom":4},{"name":"Zhongshan","lat":21.31992,"lng":110.5723,"minZoom":4},{"name":"Durban","lat":-29.8579,"lng":31.0292,"minZoom":4},{"name":"Changsha","lat":28.19874,"lng":112.97087,"minZoom":4},{"name":"Kabul","lat":34.52813,"lng":69.17233,"minZoom":4},{"name":"Ürümqi","lat":43.80096,"lng":87.60046,"minZoom":4},{"name":"Caracas","lat":10.48801,"lng":-66.87919,"minZoom":4},{"name":"Dubai","lat":25.07725,"lng":55.30927,"minZoom":4},{"name":"Pune","lat":18.51957,"lng":73.85535,"minZoom":4},{"name":"Sūrat","lat":21.19594,"lng":72.83023,"minZoom":4},{"name":"Jeddah","lat":21.49012,"lng":39.18624,"minZoom":4},{"name":"Shijiazhuang","lat":38.04139,"lng":114.47861,"minZoom":4},{"name":"Kanpur","lat":26.46523,"lng":80.34975,"minZoom":4},{"name":"Kyiv","lat":50.45466,"lng":30.5238,"minZoom":4},{"name":"Luanda","lat":-8.83682,"lng":13.23432,"minZoom":4},{"name":"Quezon City","lat":14.6488,"lng":121.0509,"minZoom":4},{"name":"Addis Ababa","lat":9.02497,"lng":38.74689,"minZoom":4},{"name":"Nairobi","lat":-1.28333,"lng":36.81667,"minZoom":4},{"name":"Chicago","lat":41.85003,"lng":-87.65005,"minZoom":4},{"name":"Salvador","lat":-12.97111,"lng":-38.51083,"minZoom":4},{"name":"Jaipur","lat":26.91962,"lng":75.78781,"minZoom":4},{"name":"Dar es Salaam","lat":-6.82349,"lng":39.26951,"minZoom":4},{"name":"Lanzhou","lat":36.05701,"lng":103.83987,"minZoom":4},{"name":"Incheon","lat":37.45646,"lng":126.70515,"minZoom":4},{"name":"Yunfu","lat":22.92833,"lng":112.03954,"minZoom":4},{"name":"Toronto","lat":43.70011,"lng":-79.4163,"minZoom":4},{"name":"Navi Mumbai","lat":19.03681,"lng":73.01582,"minZoom":4},{"name":"Basrah","lat":30.50852,"lng":47.7804,"minZoom":4},{"name":"Osaka","lat":34.69374,"lng":135.50218,"minZoom":4},{"name":"Mogadishu","lat":2.03711,"lng":45.34375,"minZoom":4},{"name":"Daegu","lat":35.87028,"lng":128.59111,"minZoom":4},{"name":"Faisalabad","lat":31.41554,"lng":73.08969,"minZoom":4},{"name":"İzmir","lat":38.41273,"lng":27.13838,"minZoom":4},{"name":"Dakar","lat":14.6937,"lng":-17.44406,"minZoom":4},{"name":"Lucknow","lat":26.83928,"lng":80.92313,"minZoom":4},{"name":"Giza","lat":30.00944,"lng":31.20861,"minZoom":4},{"name":"Fortaleza","lat":-3.71722,"lng":-38.54306,"minZoom":4},{"name":"Cali","lat":3.43722,"lng":-76.5225,"minZoom":4},{"name":"Surabaya","lat":-7.24917,"lng":112.75083,"minZoom":4},{"name":"Belo Horizonte","lat":-19.92083,"lng":-43.93778,"minZoom":4},{"name":"Nanchang","lat":28.68396,"lng":115.85306,"minZoom":4},{"name":"Rome","lat":41.89193,"lng":12.51133,"minZoom":4},{"name":"Mashhad","lat":36.31559,"lng":59.56796,"minZoom":4},{"name":"Brooklyn","lat":40.6501,"lng":-73.94958,"minZoom":4},{"name":"Houston","lat":29.76328,"lng":-95.36327,"minZoom":4},{"name":"Queens","lat":40.68149,"lng":-73.83652,"minZoom":4},{"name":"Nagpur","lat":21.14631,"lng":79.08491,"minZoom":4},{"name":"Maracaibo","lat":10.66663,"lng":-71.61245,"minZoom":4},{"name":"Brasília","lat":-15.77972,"lng":-47.92972,"minZoom":4},{"name":"Santo Domingo","lat":18.47186,"lng":-69.89232,"minZoom":4},{"name":"Nagoya","lat":35.18147,"lng":136.90641,"minZoom":4},{"name":"Brisbane","lat":-27.46794,"lng":153.02809,"minZoom":4},{"name":"Havana","lat":23.13302,"lng":-82.38304,"minZoom":4},{"name":"Paris","lat":48.85341,"lng":2.3488,"minZoom":4},{"name":"Al Mawşil al Jadīdah","lat":36.33271,"lng":43.10555,"minZoom":4},{"name":"Johannesburg","lat":-26.20227,"lng":28.04363,"minZoom":4},{"name":"Kowloon","lat":22.31667,"lng":114.18333,"minZoom":4},{"name":"Al Başrah al Qadīmah","lat":30.50316,"lng":47.81507,"minZoom":4},{"name":"Almaty","lat":43.25667,"lng":76.92861,"minZoom":4},{"name":"Dadonghai","lat":18.22056,"lng":109.51028,"minZoom":4},{"name":"Medellín","lat":6.25184,"lng":-75.56359,"minZoom":4},{"name":"Tashkent","lat":41.26465,"lng":69.21627,"minZoom":4},{"name":"Algiers","lat":36.73225,"lng":3.08746,"minZoom":4},{"name":"Khartoum","lat":15.55177,"lng":32.53241,"minZoom":4},{"name":"Accra","lat":5.55602,"lng":-0.1969,"minZoom":4},{"name":"Guayaquil","lat":-2.19616,"lng":-79.88621,"minZoom":4},{"name":"Ordos","lat":39.6086,"lng":109.78157,"minZoom":4},{"name":"Sanaa","lat":15.35472,"lng":44.20667,"minZoom":4},{"name":"Beirut","lat":33.89332,"lng":35.50157,"minZoom":4},{"name":"Perth","lat":-31.95224,"lng":115.8614,"minZoom":4},{"name":"Sapporo","lat":43.06667,"lng":141.35,"minZoom":4},{"name":"Jilin","lat":43.85083,"lng":126.56028,"minZoom":4},{"name":"Bucharest","lat":44.43225,"lng":26.10626,"minZoom":4},{"name":"Camayenne","lat":9.535,"lng":-13.68778,"minZoom":4},{"name":"Indore","lat":22.71792,"lng":75.8333,"minZoom":4},{"name":"Iztapalapa","lat":19.35529,"lng":-99.06224,"minZoom":4},{"name":"Conakry","lat":9.53795,"lng":-13.67729,"minZoom":4},{"name":"Bayan Nur","lat":40.74143,"lng":107.38599,"minZoom":4},{"name":"Maracay","lat":10.23535,"lng":-67.59113,"minZoom":4},{"name":"Medan","lat":3.58333,"lng":98.66667,"minZoom":4},{"name":"Rawalpindi","lat":33.59733,"lng":73.0479,"minZoom":4},{"name":"Minsk","lat":53.9,"lng":27.56667,"minZoom":4},{"name":"Budapest","lat":47.49835,"lng":19.04045,"minZoom":4},{"name":"Mosul","lat":36.335,"lng":43.11889,"minZoom":4},{"name":"Hamburg","lat":53.55073,"lng":9.99302,"minZoom":4},{"name":"Curitiba","lat":-25.42778,"lng":-49.27306,"minZoom":4},{"name":"Warsaw","lat":52.22977,"lng":21.01178,"minZoom":4},{"name":"Bandung","lat":-6.92222,"lng":107.60694,"minZoom":4},{"name":"Soweto","lat":-26.26781,"lng":27.85849,"minZoom":4},{"name":"Vienna","lat":48.20849,"lng":16.37208,"minZoom":4},{"name":"Rabat","lat":34.01325,"lng":-6.83255,"minZoom":4},{"name":"Ecatepec de Morelos","lat":19.60492,"lng":-99.06064,"minZoom":4},{"name":"Barcelona","lat":41.38879,"lng":2.15899,"minZoom":4},{"name":"Pretoria","lat":-25.74486,"lng":28.18783,"minZoom":4},{"name":"Aleppo","lat":36.20124,"lng":37.16117,"minZoom":4},{"name":"Montréal","lat":45.50884,"lng":-73.58781,"minZoom":4},{"name":"Kunshan","lat":31.37762,"lng":120.95431,"minZoom":4},{"name":"Manila","lat":14.6042,"lng":120.9822,"minZoom":4},{"name":"Patna","lat":25.59408,"lng":85.13563,"minZoom":4},{"name":"Bhopal","lat":23.25469,"lng":77.40289,"minZoom":4},{"name":"Manaus","lat":-3.10194,"lng":-60.025,"minZoom":4},{"name":"Xinyang","lat":32.12278,"lng":114.06556,"minZoom":4},{"name":"Kaduna","lat":10.52641,"lng":7.43879,"minZoom":4},{"name":"Phnom Penh","lat":11.56245,"lng":104.91601,"minZoom":4},{"name":"Damascus","lat":33.5102,"lng":36.29128,"minZoom":4},{"name":"Philadelphia","lat":39.95233,"lng":-75.16379,"minZoom":4},{"name":"Phoenix","lat":33.44838,"lng":-112.07404,"minZoom":4},{"name":"Isfahan","lat":32.65246,"lng":51.67462,"minZoom":4},{"name":"Ludhiāna","lat":30.91204,"lng":75.85379,"minZoom":4},{"name":"Harare","lat":-17.82772,"lng":31.05337,"minZoom":4},{"name":"Kobe","lat":34.6913,"lng":135.183,"minZoom":4},{"name":"Bekasi","lat":-6.2349,"lng":106.9896,"minZoom":4},{"name":"Kaohsiung","lat":22.61626,"lng":120.31333,"minZoom":4},{"name":"Stockholm","lat":59.32938,"lng":18.06871,"minZoom":4},{"name":"Caloocan City","lat":14.64953,"lng":120.96788,"minZoom":4},{"name":"Guadalajara","lat":20.66682,"lng":-103.39182,"minZoom":4},{"name":"Manhattan","lat":40.78343,"lng":-73.96625,"minZoom":4},{"name":"Asunción","lat":-25.28646,"lng":-57.647,"minZoom":4},{"name":"Recife","lat":-8.05389,"lng":-34.88111,"minZoom":4},{"name":"Daejeon","lat":36.34913,"lng":127.38493,"minZoom":4},{"name":"San Antonio","lat":29.42412,"lng":-98.49363,"minZoom":4},{"name":"Kumasi","lat":6.68848,"lng":-1.62443,"minZoom":4},{"name":"Kota Bharu","lat":6.12361,"lng":102.24333,"minZoom":4},{"name":"Kyoto","lat":35.02107,"lng":135.75385,"minZoom":4},{"name":"Kuala Lumpur","lat":3.1412,"lng":101.68653,"minZoom":4},{"name":"Karaj","lat":35.83266,"lng":50.99155,"minZoom":4},{"name":"Kathmandu","lat":27.70169,"lng":85.3206,"minZoom":4},{"name":"Palembang","lat":-2.91673,"lng":104.7458,"minZoom":4},{"name":"Multan","lat":30.19679,"lng":71.47824,"minZoom":4},{"name":"Tirunelveli","lat":8.72742,"lng":77.6838,"minZoom":4},{"name":"Puebla","lat":19.03793,"lng":-98.20346,"minZoom":4},{"name":"Hanoi","lat":21.0245,"lng":105.84117,"minZoom":4},{"name":"Kharkiv","lat":49.98081,"lng":36.25272,"minZoom":4},{"name":"Agra","lat":27.18333,"lng":78.01667,"minZoom":4},{"name":"Córdoba","lat":-31.4135,"lng":-64.18105,"minZoom":4},{"name":"Tabriz","lat":38.08,"lng":46.2919,"minZoom":4},{"name":"Novosibirsk","lat":55.0415,"lng":82.9346,"minZoom":4},{"name":"Gwangju","lat":35.15472,"lng":126.91556,"minZoom":4},{"name":"Bursa","lat":40.19559,"lng":29.06013,"minZoom":4},{"name":"Vadodara","lat":22.29941,"lng":73.20812,"minZoom":4},{"name":"Belém","lat":-1.45583,"lng":-48.50444,"minZoom":4},{"name":"Fushun","lat":41.88669,"lng":123.94363,"minZoom":4},{"name":"Quito","lat":-0.22985,"lng":-78.52495,"minZoom":4},{"name":"San Diego","lat":32.71571,"lng":-117.16472,"minZoom":4},{"name":"Fukuoka","lat":33.6,"lng":130.41667,"minZoom":4},{"name":"Antananarivo","lat":-18.91368,"lng":47.53613,"minZoom":4},{"name":"Luoyang","lat":34.68361,"lng":112.45361,"minZoom":4},{"name":"Hyderabad","lat":25.39242,"lng":68.37366,"minZoom":4},{"name":"The Bronx","lat":40.84985,"lng":-73.86641,"minZoom":4},{"name":"Valencia","lat":10.16202,"lng":-68.00765,"minZoom":4},{"name":"Gujranwala","lat":32.15567,"lng":74.18705,"minZoom":4},{"name":"Barranquilla","lat":10.96854,"lng":-74.78132,"minZoom":4},{"name":"Guankou","lat":28.15861,"lng":113.62709,"minZoom":4},{"name":"Lubumbashi","lat":-11.66089,"lng":27.47938,"minZoom":4},{"name":"Porto Alegre","lat":-30.03283,"lng":-51.23019,"minZoom":4},{"name":"Tangerang","lat":-6.17806,"lng":106.63,"minZoom":4},{"name":"Najafgarh","lat":28.60922,"lng":76.97982,"minZoom":4},{"name":"Santa Cruz de la Sierra","lat":-17.78629,"lng":-63.18117,"minZoom":4},{"name":"Handan","lat":36.60056,"lng":114.46778,"minZoom":4},{"name":"Kampala","lat":0.31628,"lng":32.58219,"minZoom":4},{"name":"Yekaterinburg","lat":56.8519,"lng":60.6122,"minZoom":4},{"name":"Khulna","lat":22.80979,"lng":89.56439,"minZoom":4},{"name":"Douala","lat":4.04827,"lng":9.70428,"minZoom":4},{"name":"Gorakhpur","lat":29.44768,"lng":75.67206,"minZoom":4},{"name":"Sharjah","lat":25.33737,"lng":55.41206,"minZoom":4},{"name":"Mecca","lat":21.42664,"lng":39.82563,"minZoom":4},{"name":"Makassar","lat":-5.14861,"lng":119.43194,"minZoom":4},{"name":"Juárez","lat":31.72024,"lng":-106.46084,"minZoom":4},{"name":"Kawasaki","lat":35.52056,"lng":139.71722,"minZoom":4},{"name":"South Tangerang","lat":-6.28862,"lng":106.71789,"minZoom":4},{"name":"Baotou","lat":40.58337,"lng":110.01669,"minZoom":4},{"name":"Tijuana","lat":32.5027,"lng":-117.00371,"minZoom":4},{"name":"Dallas","lat":32.78306,"lng":-96.80667,"minZoom":4},{"name":"Medina","lat":24.46861,"lng":39.61417,"minZoom":4},{"name":"Yaoundé","lat":3.86667,"lng":11.51667,"minZoom":4},{"name":"Bamako","lat":12.65,"lng":-8,"minZoom":4},{"name":"Nashik","lat":19.99727,"lng":73.79096,"minZoom":4},{"name":"Semarang","lat":-6.99306,"lng":110.42083,"minZoom":4},{"name":"Brazzaville","lat":-4.26613,"lng":15.28318,"minZoom":4},{"name":"Pimpri","lat":18.62292,"lng":73.80696,"minZoom":4},{"name":"Nizhniy Novgorod","lat":56.32867,"lng":44.00205,"minZoom":4},{"name":"Amman","lat":31.95522,"lng":35.94503,"minZoom":4},{"name":"Budta","lat":7.20417,"lng":124.43972,"minZoom":4},{"name":"Belgrade","lat":44.80401,"lng":20.46513,"minZoom":4},{"name":"Montevideo","lat":-34.90328,"lng":-56.18816,"minZoom":4},{"name":"Lusaka","lat":-15.40669,"lng":28.28713,"minZoom":4},{"name":"Xuchang","lat":34.03189,"lng":113.86299,"minZoom":4},{"name":"Kalyān","lat":19.2437,"lng":73.13554,"minZoom":4},{"name":"Thāne","lat":19.19704,"lng":72.96355,"minZoom":4},{"name":"Munich","lat":48.13743,"lng":11.57549,"minZoom":4},{"name":"Ra’s Bayrūt","lat":33.9,"lng":35.48333,"minZoom":4},{"name":"Shiraz","lat":29.61031,"lng":52.53113,"minZoom":4},{"name":"Adana","lat":36.98615,"lng":35.32531,"minZoom":4},{"name":"Suwon","lat":37.29111,"lng":127.00889,"minZoom":4},{"name":"León de los Aldama","lat":21.12908,"lng":-101.67374,"minZoom":4},{"name":"Milan","lat":45.46427,"lng":9.18951,"minZoom":4},{"name":"Port-au-Prince","lat":18.54349,"lng":-72.33881,"minZoom":4},{"name":"Adelaide","lat":-34.92866,"lng":138.59863,"minZoom":4},{"name":"Meerut","lat":28.98002,"lng":77.70636,"minZoom":4},{"name":"Nowrangapur","lat":19.23114,"lng":82.54826,"minZoom":4},{"name":"Faridabad","lat":28.41124,"lng":77.31316,"minZoom":4},{"name":"Peshawar","lat":34.008,"lng":71.57849,"minZoom":4},{"name":"Davao","lat":7.07306,"lng":125.61278,"minZoom":4},{"name":"Mandalay","lat":21.97473,"lng":96.08359,"minZoom":4},{"name":"Yueyang","lat":29.37455,"lng":113.09481,"minZoom":4},{"name":"Santiago de los Caballeros","lat":19.4517,"lng":-70.69703,"minZoom":4},{"name":"Omdurman","lat":15.64453,"lng":32.47773,"minZoom":4},{"name":"Anshan","lat":41.12361,"lng":122.99,"minZoom":4},{"name":"Tongshan","lat":34.18045,"lng":117.15707,"minZoom":4},{"name":"Ghāziābād","lat":28.66535,"lng":77.43915,"minZoom":4},{"name":"Depok","lat":-6.4,"lng":106.81861,"minZoom":4},{"name":"Saitama","lat":35.90807,"lng":139.65657,"minZoom":4},{"name":"Dombivli","lat":19.21667,"lng":73.08333,"minZoom":4},{"name":"Maputo","lat":-25.96553,"lng":32.58322,"minZoom":4},{"name":"Gustavo Adolfo Madero","lat":19.49392,"lng":-99.11075,"minZoom":4},{"name":"Fuzhou","lat":26.06139,"lng":119.30611,"minZoom":4},{"name":"Rājkot","lat":22.29161,"lng":70.79322,"minZoom":4},{"name":"Rosario","lat":-32.94682,"lng":-60.63932,"minZoom":4},{"name":"Guiyang","lat":26.58333,"lng":106.71667,"minZoom":4},{"name":"Goiânia","lat":-16.67861,"lng":-49.25389,"minZoom":4},{"name":"Guarulhos","lat":-23.46278,"lng":-46.53333,"minZoom":4},{"name":"Prague","lat":50.08804,"lng":14.42076,"minZoom":4},{"name":"Varanasi","lat":25.31668,"lng":83.01041,"minZoom":4},{"name":"Batam","lat":1.14937,"lng":104.02491,"minZoom":4},{"name":"Copenhagen","lat":55.67594,"lng":12.56553,"minZoom":4},{"name":"Sofia","lat":42.69751,"lng":23.32415,"minZoom":4},{"name":"Tripoli","lat":32.88743,"lng":13.18733,"minZoom":4},{"name":"Port Harcourt","lat":4.77742,"lng":7.0134,"minZoom":4},{"name":"Hiroshima","lat":34.4,"lng":132.45,"minZoom":4},{"name":"Zapopan","lat":20.72356,"lng":-103.38479,"minZoom":4},{"name":"Lijiang","lat":26.86879,"lng":100.22072,"minZoom":4},{"name":"Monterrey","lat":25.67507,"lng":-100.31847,"minZoom":4},{"name":"Samara","lat":53.20007,"lng":50.15,"minZoom":4},{"name":"Omsk","lat":54.99244,"lng":73.36859,"minZoom":4},{"name":"Benin City","lat":6.33815,"lng":5.62575,"minZoom":4},{"name":"Malingao","lat":7.16083,"lng":124.475,"minZoom":4},{"name":"Baku","lat":40.37767,"lng":49.89201,"minZoom":4},{"name":"Maiduguri","lat":11.84692,"lng":13.15712,"minZoom":4},{"name":"Kazan","lat":55.78874,"lng":49.12214,"minZoom":4},{"name":"Ciudad Nezahualcoyotl","lat":19.40061,"lng":-99.01483,"minZoom":4},{"name":"Yerevan","lat":40.18111,"lng":44.51361,"minZoom":4},{"name":"Amritsar","lat":31.62234,"lng":74.87534,"minZoom":4},{"name":"Ouagadougou","lat":12.36566,"lng":-1.53388,"minZoom":4},{"name":"Yono","lat":35.88333,"lng":139.63333,"minZoom":4},{"name":"Rostov-na-Donu","lat":47.23135,"lng":39.72328,"minZoom":4},{"name":"Allahābād","lat":25.44478,"lng":81.84322,"minZoom":4},{"name":"Goyang-si","lat":37.65639,"lng":126.835,"minZoom":4},{"name":"Gaziantep","lat":37.05944,"lng":37.3825,"minZoom":4},{"name":"Visakhapatnam","lat":17.68009,"lng":83.20161,"minZoom":4},{"name":"Sendai","lat":38.26667,"lng":140.86667,"minZoom":4},{"name":"Chelyabinsk","lat":55.15402,"lng":61.42915,"minZoom":4},{"name":"Datong","lat":40.09361,"lng":113.29139,"minZoom":4},{"name":"Tbilisi","lat":41.69411,"lng":44.83368,"minZoom":4},{"name":"Changshu City","lat":31.64615,"lng":120.74221,"minZoom":4},{"name":"Taichung","lat":24.1469,"lng":120.6839,"minZoom":4},{"name":"Teni","lat":10.01115,"lng":77.47772,"minZoom":4},{"name":"Xianyang","lat":34.33778,"lng":108.70261,"minZoom":4},{"name":"Ufa","lat":54.74306,"lng":55.96779,"minZoom":4},{"name":"Dnipro","lat":48.4593,"lng":35.03865,"minZoom":4},{"name":"Seongnam-si","lat":37.43861,"lng":127.13778,"minZoom":4},{"name":"Campinas","lat":-22.90556,"lng":-47.06083,"minZoom":4},{"name":"Jabalpur","lat":23.16697,"lng":79.95006,"minZoom":4},{"name":"Hāora","lat":22.57688,"lng":88.31857,"minZoom":4},{"name":"Huainan","lat":32.62639,"lng":116.99694,"minZoom":4},{"name":"San Jose","lat":37.33939,"lng":-121.89496,"minZoom":4},{"name":"Donetsk","lat":48.023,"lng":37.80224,"minZoom":4},{"name":"Dublin","lat":53.33306,"lng":-6.24889,"minZoom":4},{"name":"Calgary","lat":51.05011,"lng":-114.08529,"minZoom":4},{"name":"Brussels","lat":50.85045,"lng":4.34878,"minZoom":4},{"name":"Aurangabad","lat":19.87757,"lng":75.34226,"minZoom":4},{"name":"Volgograd","lat":48.71939,"lng":44.50183,"minZoom":4},{"name":"Nova Iguaçu","lat":-22.75917,"lng":-43.45111,"minZoom":4},{"name":"Jieyang","lat":23.5418,"lng":116.36581,"minZoom":4},{"name":"Odessa","lat":46.47747,"lng":30.73262,"minZoom":4},{"name":"Zhu Cheng City","lat":35.99502,"lng":119.40259,"minZoom":5},{"name":"Shivaji Nagar","lat":18.53017,"lng":73.85263,"minZoom":5},{"name":"Kitakyushu","lat":33.85181,"lng":130.85034,"minZoom":5},{"name":"Solāpur","lat":17.67152,"lng":75.91044,"minZoom":5},{"name":"Baoding","lat":38.85111,"lng":115.49028,"minZoom":5},{"name":"Guatemala City","lat":14.64072,"lng":-90.51327,"minZoom":5},{"name":"Benxi","lat":41.28861,"lng":123.765,"minZoom":5},{"name":"Birmingham","lat":52.48142,"lng":-1.89983,"minZoom":5},{"name":"Perm","lat":58.01046,"lng":56.25017,"minZoom":5},{"name":"Srinagar","lat":34.08565,"lng":74.80555,"minZoom":5},{"name":"Zaria","lat":11.11128,"lng":7.7227,"minZoom":5},{"name":"Managua","lat":12.13282,"lng":-86.2504,"minZoom":5},{"name":"Port Elizabeth","lat":-33.96109,"lng":25.61494,"minZoom":5},{"name":"Fès","lat":34.03313,"lng":-5.00028,"minZoom":5},{"name":"Köln","lat":50.93333,"lng":6.95,"minZoom":5},{"name":"Ulsan","lat":35.53722,"lng":129.31667,"minZoom":5},{"name":"Chandigarh","lat":30.73629,"lng":76.7884,"minZoom":5},{"name":"Coimbatore","lat":11.00555,"lng":76.96612,"minZoom":5},{"name":"Naples","lat":40.85216,"lng":14.26811,"minZoom":5},{"name":"Maceió","lat":-9.66583,"lng":-35.73528,"minZoom":5},{"name":"Cartagena","lat":10.39972,"lng":-75.51444,"minZoom":5},{"name":"Changzhou","lat":31.77359,"lng":119.95401,"minZoom":5},{"name":"Sulţānah","lat":24.49258,"lng":39.58572,"minZoom":5},{"name":"Monrovia","lat":6.30054,"lng":-10.7969,"minZoom":5},{"name":"Kingston","lat":17.99702,"lng":-76.79358,"minZoom":5},{"name":"Erbil","lat":36.18333,"lng":44.01193,"minZoom":5},{"name":"Austin","lat":30.26715,"lng":-97.74306,"minZoom":5},{"name":"Krasnoyarsk","lat":56.01839,"lng":92.86717,"minZoom":5},{"name":"Nay Pyi Taw","lat":19.745,"lng":96.12972,"minZoom":5},{"name":"Jodhpur","lat":26.26841,"lng":73.00594,"minZoom":5},{"name":"Chiba","lat":35.6,"lng":140.11667,"minZoom":5},{"name":"São Luís","lat":-2.52972,"lng":-44.30278,"minZoom":5},{"name":"Madurai","lat":9.919,"lng":78.11953,"minZoom":5},{"name":"Sale","lat":34.0531,"lng":-6.79846,"minZoom":5},{"name":"Huaibei","lat":33.97444,"lng":116.79167,"minZoom":5},{"name":"Cochabamba","lat":-17.3895,"lng":-66.1568,"minZoom":5},{"name":"Abobo","lat":5.41613,"lng":-4.0159,"minZoom":5},{"name":"Kaifeng","lat":34.7986,"lng":114.30742,"minZoom":5},{"name":"Abū Ghurayb","lat":33.30563,"lng":44.18477,"minZoom":5},{"name":"Qom","lat":34.6401,"lng":50.8764,"minZoom":5},{"name":"Bishkek","lat":42.87,"lng":74.59,"minZoom":5},{"name":"Guwahati","lat":26.1844,"lng":91.7458,"minZoom":5},{"name":"Aba","lat":5.10658,"lng":7.36667,"minZoom":5},{"name":"Pingdingshan","lat":33.73847,"lng":113.30119,"minZoom":5},{"name":"Gwalior","lat":26.22983,"lng":78.17337,"minZoom":5},{"name":"Qiqihar","lat":47.34088,"lng":123.96045,"minZoom":5},{"name":"Klang","lat":3.03667,"lng":101.44333,"minZoom":5},{"name":"Mendoza","lat":-32.89084,"lng":-68.82717,"minZoom":5},{"name":"Konya","lat":37.87135,"lng":32.48464,"minZoom":5},{"name":"Mbuji-Mayi","lat":-6.13603,"lng":23.58979,"minZoom":5},{"name":"Vijayawada","lat":16.50745,"lng":80.6466,"minZoom":5},{"name":"Pikine","lat":14.76457,"lng":-17.39071,"minZoom":5},{"name":"Turin","lat":45.07049,"lng":7.68682,"minZoom":5},{"name":"Mysore","lat":12.29791,"lng":76.63925,"minZoom":5},{"name":"Jacksonville","lat":30.33218,"lng":-81.65565,"minZoom":5},{"name":"Wenzhou","lat":27.99942,"lng":120.66682,"minZoom":5},{"name":"San Francisco","lat":37.77493,"lng":-122.41942,"minZoom":5},{"name":"Liverpool","lat":53.41058,"lng":-2.97794,"minZoom":5},{"name":"Saratov","lat":51.54056,"lng":46.00861,"minZoom":5},{"name":"Rohini","lat":28.74322,"lng":77.06778,"minZoom":5},{"name":"Tegucigalpa","lat":14.0818,"lng":-87.20681,"minZoom":5},{"name":"Bucheon-si","lat":37.49889,"lng":126.78306,"minZoom":5},{"name":"Columbus","lat":39.96118,"lng":-82.99879,"minZoom":5},{"name":"Voronezh","lat":51.67204,"lng":39.1843,"minZoom":5},{"name":"Ranchi","lat":23.34316,"lng":85.3094,"minZoom":5},{"name":"Ulan Bator","lat":47.90771,"lng":106.88324,"minZoom":5},{"name":"Takeo","lat":10.99081,"lng":104.78498,"minZoom":5},{"name":"Ahvaz","lat":31.31901,"lng":48.6842,"minZoom":5},{"name":"Arequipa","lat":-16.39889,"lng":-71.535,"minZoom":5},{"name":"Padang","lat":-0.94924,"lng":100.35427,"minZoom":5},{"name":"Hubli","lat":15.34776,"lng":75.13378,"minZoom":5},{"name":"Zhabei","lat":31.25861,"lng":121.45972,"minZoom":5},{"name":"Marrakesh","lat":31.63416,"lng":-7.99994,"minZoom":5},{"name":"Denpasar","lat":-8.65,"lng":115.21667,"minZoom":5},{"name":"Kampung Baru Subang","lat":3.15,"lng":101.53333,"minZoom":5},{"name":"Fort Worth","lat":32.72541,"lng":-97.32085,"minZoom":5},{"name":"Indianapolis","lat":39.76838,"lng":-86.15804,"minZoom":5},{"name":"Charlotte","lat":35.22709,"lng":-80.84313,"minZoom":5},{"name":"Duque de Caxias","lat":-22.78556,"lng":-43.31167,"minZoom":5},{"name":"Jos","lat":9.92849,"lng":8.89212,"minZoom":5},{"name":"Valencia","lat":39.46975,"lng":-0.37739,"minZoom":5},{"name":"Ilorin","lat":8.49664,"lng":4.54214,"minZoom":5},{"name":"Callao","lat":-12.05659,"lng":-77.11814,"minZoom":5},{"name":"La Paz","lat":-16.5,"lng":-68.15,"minZoom":5},{"name":"Ottawa","lat":45.41117,"lng":-75.69812,"minZoom":5},{"name":"Barquisimeto","lat":10.0647,"lng":-69.35703,"minZoom":5},{"name":"Chihuahua","lat":28.63528,"lng":-106.08889,"minZoom":5},{"name":"Nanning","lat":22.81667,"lng":108.31667,"minZoom":5},{"name":"Freetown","lat":8.48714,"lng":-13.2356,"minZoom":5},{"name":"Johor Bahru","lat":1.4655,"lng":103.7578,"minZoom":5},{"name":"Jerusalem","lat":31.76904,"lng":35.21633,"minZoom":5},{"name":"Bandar Lampung","lat":-5.42917,"lng":105.26111,"minZoom":5},{"name":"Bogor","lat":-6.59444,"lng":106.78917,"minZoom":5},{"name":"Narela","lat":28.85267,"lng":77.09288,"minZoom":5},{"name":"Mombasa","lat":-4.05466,"lng":39.66359,"minZoom":5},{"name":"Cebu City","lat":10.31672,"lng":123.89071,"minZoom":5},{"name":"Muscat","lat":23.58413,"lng":58.40778,"minZoom":5},{"name":"Zaporizhia","lat":47.82289,"lng":35.19031,"minZoom":5},{"name":"Marseille","lat":43.29695,"lng":5.38107,"minZoom":5},{"name":"Zarqa","lat":32.07275,"lng":36.08796,"minZoom":5},{"name":"Naucalpan de Juárez","lat":19.47851,"lng":-99.23963,"minZoom":5},{"name":"Çankaya","lat":39.9179,"lng":32.86268,"minZoom":5},{"name":"Rahim Yar Khan","lat":28.41987,"lng":70.30345,"minZoom":5},{"name":"Pasragad Branch","lat":34.77772,"lng":48.47168,"minZoom":5},{"name":"Boumerdas","lat":36.76639,"lng":3.47717,"minZoom":5},{"name":"Jalandhar","lat":31.32556,"lng":75.57917,"minZoom":5},{"name":"Thiruvananthapuram","lat":8.4855,"lng":76.94924,"minZoom":5},{"name":"Sakai","lat":34.58333,"lng":135.46667,"minZoom":5},{"name":"Anyang","lat":36.096,"lng":114.38278,"minZoom":5},{"name":"San Miguel de Tucumán","lat":-26.82414,"lng":-65.2226,"minZoom":5},{"name":"Cotonou","lat":6.36536,"lng":2.41833,"minZoom":5},{"name":"Salem","lat":11.65376,"lng":78.15538,"minZoom":5},{"name":"Mérida","lat":20.97537,"lng":-89.61696,"minZoom":5},{"name":"Tiruchirappalli","lat":10.8155,"lng":78.69651,"minZoom":5},{"name":"Homs","lat":34.72682,"lng":36.72339,"minZoom":5},{"name":"Hohhot","lat":40.81056,"lng":111.65222,"minZoom":5},{"name":"Niamey","lat":13.51366,"lng":2.1098,"minZoom":5},{"name":"Tainan","lat":22.99083,"lng":120.21333,"minZoom":5},{"name":"Shangyu","lat":30.01556,"lng":120.87111,"minZoom":5},{"name":"Łódź","lat":51.77058,"lng":19.47395,"minZoom":5},{"name":"Dammam","lat":26.43442,"lng":50.10326,"minZoom":5},{"name":"Xining","lat":36.62554,"lng":101.75739,"minZoom":5},{"name":"Kahrīz","lat":34.3838,"lng":47.0553,"minZoom":5},{"name":"Kota","lat":25.18254,"lng":75.83907,"minZoom":5},{"name":"Natal","lat":-5.795,"lng":-35.20944,"minZoom":5},{"name":"Bhubaneshwar","lat":20.27241,"lng":85.83385,"minZoom":5},{"name":"Qinhuangdao","lat":39.93167,"lng":119.58833,"minZoom":5},{"name":"Hengyang","lat":26.88946,"lng":112.61888,"minZoom":5},{"name":"Antalya","lat":36.90812,"lng":30.69556,"minZoom":5},{"name":"Kraków","lat":50.06143,"lng":19.93658,"minZoom":5},{"name":"Alīgarh","lat":27.88145,"lng":78.07464,"minZoom":5},{"name":"Da Nang","lat":16.06778,"lng":108.22083,"minZoom":5},{"name":"Pietermaritzburg","lat":-29.61679,"lng":30.39278,"minZoom":5},{"name":"Lomé","lat":6.12874,"lng":1.22154,"minZoom":5},{"name":"Trujillo","lat":-8.11599,"lng":-79.02998,"minZoom":5},{"name":"Malang","lat":-7.9797,"lng":112.6304,"minZoom":5},{"name":"Ciudad Guayana","lat":8.35122,"lng":-62.64102,"minZoom":5},{"name":"Bareilly","lat":28.36678,"lng":79.43167,"minZoom":5},{"name":"Kigali","lat":-1.94995,"lng":30.05885,"minZoom":5},{"name":"Teresina","lat":-5.08917,"lng":-42.80194,"minZoom":5},{"name":"Xinxiang","lat":35.19033,"lng":113.80151,"minZoom":5},{"name":"São Bernardo do Campo","lat":-23.69389,"lng":-46.565,"minZoom":5},{"name":"Hegang","lat":47.35118,"lng":130.30012,"minZoom":5},{"name":"Riga","lat":56.946,"lng":24.10589,"minZoom":5},{"name":"Amsterdam","lat":52.37403,"lng":4.88969,"minZoom":5},{"name":"Oyo","lat":7.85257,"lng":3.93125,"minZoom":5},{"name":"Quetta","lat":30.18414,"lng":67.00141,"minZoom":5},{"name":"Nottingham","lat":52.9536,"lng":-1.15047,"minZoom":5},{"name":"Campo Grande","lat":-20.44278,"lng":-54.64639,"minZoom":5},{"name":"Ashgabat","lat":37.95,"lng":58.38333,"minZoom":5},{"name":"Álvaro Obregón","lat":19.35867,"lng":-99.20329,"minZoom":5},{"name":"Muzaffarābād","lat":34.37002,"lng":73.47082,"minZoom":5},{"name":"Bağcılar","lat":41.03903,"lng":28.85671,"minZoom":5},{"name":"As Sulaymānīyah","lat":35.56496,"lng":45.4329,"minZoom":5},{"name":"San Luis Potosí","lat":22.14982,"lng":-100.97916,"minZoom":5},{"name":"Aguascalientes","lat":21.88234,"lng":-102.28259,"minZoom":5},{"name":"Cúcuta","lat":7.89391,"lng":-72.50782,"minZoom":5},{"name":"Morādābād","lat":28.83893,"lng":78.77684,"minZoom":5},{"name":"N'Djamena","lat":12.10672,"lng":15.0444,"minZoom":5},{"name":"Langfang","lat":39.50972,"lng":116.69472,"minZoom":5},{"name":"Zhumadian","lat":32.97944,"lng":114.02944,"minZoom":5},{"name":"Yantai","lat":37.47649,"lng":121.44081,"minZoom":5},{"name":"Lviv","lat":49.83826,"lng":24.02324,"minZoom":5},{"name":"Hermosillo","lat":29.1026,"lng":-110.97732,"minZoom":5},{"name":"Edmonton","lat":53.55014,"lng":-113.46871,"minZoom":5},{"name":"Jeonju","lat":35.82194,"lng":127.14889,"minZoom":5},{"name":"Saltillo","lat":25.42321,"lng":-101.0053,"minZoom":5},{"name":"Zhuzhou","lat":27.83333,"lng":113.15,"minZoom":5},{"name":"Subang Jaya","lat":3.04384,"lng":101.58062,"minZoom":5},{"name":"Bhiwandi","lat":19.30023,"lng":73.05881,"minZoom":5},{"name":"Pekanbaru","lat":0.51667,"lng":101.44167,"minZoom":5},{"name":"Sevilla","lat":37.38283,"lng":-5.97317,"minZoom":5},{"name":"Tol’yatti","lat":53.5303,"lng":49.3461,"minZoom":5},{"name":"Jaboatão","lat":-8.18028,"lng":-35.00139,"minZoom":5},{"name":"Shizuoka","lat":34.98333,"lng":138.38333,"minZoom":5},{"name":"Santo Domingo Oeste","lat":18.5,"lng":-70,"minZoom":5},{"name":"Rājshāhi","lat":24.374,"lng":88.60114,"minZoom":5},{"name":"Santo Domingo Este","lat":18.48847,"lng":-69.85707,"minZoom":5},{"name":"City of Balikpapan","lat":-1.24204,"lng":116.89419,"minZoom":5},{"name":"Battagram","lat":34.67719,"lng":73.02329,"minZoom":5},{"name":"Changzhi","lat":35.20889,"lng":111.73861,"minZoom":5},{"name":"Bulawayo","lat":-20.15,"lng":28.58333,"minZoom":5},{"name":"Zagreb","lat":45.81444,"lng":15.97798,"minZoom":5},{"name":"Agadir","lat":30.42018,"lng":-9.59815,"minZoom":5},{"name":"Sarajevo","lat":43.84864,"lng":18.35644,"minZoom":5},{"name":"La Plata","lat":-34.92145,"lng":-57.95453,"minZoom":5},{"name":"Tunis","lat":36.81897,"lng":10.16579,"minZoom":5},{"name":"Zhangjiakou","lat":40.81,"lng":114.87944,"minZoom":5},{"name":"Zigong","lat":29.34162,"lng":104.77689,"minZoom":5},{"name":"Mexicali","lat":32.62781,"lng":-115.45446,"minZoom":5},{"name":"Fuxin","lat":42.01556,"lng":121.65889,"minZoom":5},{"name":"Enugu","lat":6.44132,"lng":7.49883,"minZoom":5},{"name":"Tangier","lat":35.76727,"lng":-5.79975,"minZoom":5},{"name":"Huangshi","lat":30.24706,"lng":115.04814,"minZoom":5},{"name":"Liaoyang","lat":41.27194,"lng":123.17306,"minZoom":5},{"name":"Sheffield","lat":53.38297,"lng":-1.4659,"minZoom":5},{"name":"Seattle","lat":47.60621,"lng":-122.33207,"minZoom":5},{"name":"Denver","lat":39.73915,"lng":-104.9847,"minZoom":5},{"name":"El Paso","lat":31.75872,"lng":-106.48693,"minZoom":5},{"name":"Kumamoto","lat":32.80589,"lng":130.69181,"minZoom":5},{"name":"Raipur","lat":21.23333,"lng":81.63333,"minZoom":5},{"name":"General Santos","lat":6.11278,"lng":125.17167,"minZoom":5},{"name":"Dushanbe","lat":38.53575,"lng":68.77905,"minZoom":5},{"name":"Osasco","lat":-23.5325,"lng":-46.79167,"minZoom":5},{"name":"Detroit","lat":42.33143,"lng":-83.04575,"minZoom":5},{"name":"Culiacán","lat":24.79032,"lng":-107.38782,"minZoom":5},{"name":"Matola","lat":-25.96222,"lng":32.45889,"minZoom":5},{"name":"Zaragoza","lat":41.65606,"lng":-0.87734,"minZoom":5},{"name":"Gorakhpur","lat":26.76628,"lng":83.36889,"minZoom":5},{"name":"Xiangtan","lat":27.85,"lng":112.9,"minZoom":5},{"name":"Guadalupe","lat":25.67678,"lng":-100.25646,"minZoom":5},{"name":"Acapulco de Juárez","lat":16.84942,"lng":-99.90891,"minZoom":5},{"name":"Ipoh","lat":4.5841,"lng":101.0829,"minZoom":5},{"name":"Mississauga","lat":43.5789,"lng":-79.6583,"minZoom":5},{"name":"Boston","lat":42.35843,"lng":-71.05977,"minZoom":5},{"name":"Puyang Chengguanzhen","lat":35.70506,"lng":115.01409,"minZoom":5},{"name":"Nantong","lat":32.03028,"lng":120.87472,"minZoom":5},{"name":"Mudanjiang","lat":44.58333,"lng":129.6,"minZoom":5},{"name":"Athens","lat":37.98376,"lng":23.72784,"minZoom":5},{"name":"Santo André","lat":-23.66389,"lng":-46.53833,"minZoom":5},{"name":"Nouakchott","lat":18.08581,"lng":-15.9785,"minZoom":5},{"name":"Pointe-Noire","lat":-4.77609,"lng":11.86352,"minZoom":5},{"name":"Memphis","lat":35.14953,"lng":-90.04898,"minZoom":5},{"name":"Tlalnepantla","lat":19.54005,"lng":-99.19538,"minZoom":5},{"name":"Kryvyi Rih","lat":47.90966,"lng":33.38044,"minZoom":5},{"name":"João Pessoa","lat":-7.115,"lng":-34.86306,"minZoom":5},{"name":"Ansan-si","lat":37.32361,"lng":126.82194,"minZoom":5},{"name":"Benghazi","lat":32.11486,"lng":20.06859,"minZoom":5},{"name":"Frankfurt am Main","lat":50.11552,"lng":8.68417,"minZoom":5},{"name":"Krasnodar","lat":45.04484,"lng":38.97603,"minZoom":5},{"name":"Guilin","lat":25.28194,"lng":110.28639,"minZoom":5},{"name":"Palermo","lat":38.13205,"lng":13.33561,"minZoom":5},{"name":"Colombo","lat":6.93548,"lng":79.84868,"minZoom":5},{"name":"Lilongwe","lat":-13.96692,"lng":33.78725,"minZoom":5},{"name":"Oran","lat":35.69906,"lng":-0.63588,"minZoom":5},{"name":"Diyarbakır","lat":37.91363,"lng":40.21721,"minZoom":5},{"name":"Taguig","lat":14.5243,"lng":121.0792,"minZoom":5},{"name":"New South Memphis","lat":35.08676,"lng":-90.05676,"minZoom":5},{"name":"Ulyanovsk","lat":54.32824,"lng":48.38657,"minZoom":5},{"name":"Kotli","lat":33.51836,"lng":73.9022,"minZoom":5},{"name":"Okayama","lat":34.65,"lng":133.93333,"minZoom":5},{"name":"Zhanjiang","lat":21.28145,"lng":110.34271,"minZoom":5},{"name":"Al Aḩmadī","lat":29.07694,"lng":48.08389,"minZoom":5},{"name":"Yogyakarta","lat":-7.80139,"lng":110.36472,"minZoom":5},{"name":"North York","lat":43.76681,"lng":-79.4163,"minZoom":5},{"name":"Chisinau","lat":47.00556,"lng":28.8575,"minZoom":5},{"name":"Wrocław","lat":51.1,"lng":17.03333,"minZoom":5},{"name":"Cheongju-si","lat":36.63722,"lng":127.48972,"minZoom":5},{"name":"Anyang-si","lat":37.3925,"lng":126.92694,"minZoom":5},{"name":"Tébessa","lat":35.40417,"lng":8.12417,"minZoom":5},{"name":"Zhenjiang","lat":32.21086,"lng":119.45508,"minZoom":5},{"name":"Portland","lat":45.52345,"lng":-122.67621,"minZoom":5},{"name":"Winnipeg","lat":49.8844,"lng":-97.14704,"minZoom":5},{"name":"Dandong","lat":40.12917,"lng":124.39472,"minZoom":5},{"name":"Oklahoma City","lat":35.46756,"lng":-97.51643,"minZoom":5},{"name":"Izhevsk","lat":56.84976,"lng":53.20448,"minZoom":5},{"name":"Jaboatão dos Guararapes","lat":-8.11278,"lng":-35.01472,"minZoom":5},{"name":"Shaoguan","lat":24.8,"lng":113.58333,"minZoom":5},{"name":"Yancheng","lat":33.3575,"lng":120.1573,"minZoom":5},{"name":"Cancún","lat":21.17429,"lng":-86.84656,"minZoom":5},{"name":"Contagem","lat":-19.93167,"lng":-44.05361,"minZoom":5},{"name":"Santiago de Querétaro","lat":20.58806,"lng":-100.38806,"minZoom":5},{"name":"Bhilai","lat":21.20919,"lng":81.4285,"minZoom":5},{"name":"Panshan","lat":41.18806,"lng":122.04944,"minZoom":5},{"name":"Djibouti","lat":11.58901,"lng":43.14503,"minZoom":5},{"name":"Las Vegas","lat":36.17497,"lng":-115.13722,"minZoom":5},{"name":"Baltimore","lat":39.29038,"lng":-76.61219,"minZoom":5},{"name":"Kermanshah","lat":34.31417,"lng":47.065,"minZoom":5},{"name":"Coyoacán","lat":19.3467,"lng":-99.16174,"minZoom":5},{"name":"Ribeirão Preto","lat":-21.1775,"lng":-47.81028,"minZoom":5},{"name":"Al Ḩudaydah","lat":14.79781,"lng":42.95452,"minZoom":5},{"name":"Pasig City","lat":14.58691,"lng":121.0614,"minZoom":5},{"name":"Bristol","lat":51.45523,"lng":-2.59665,"minZoom":5},{"name":"Jamshedpur","lat":22.80278,"lng":86.18545,"minZoom":5},{"name":"Haikou","lat":20.04583,"lng":110.34167,"minZoom":5},{"name":"Ta‘izz","lat":13.57952,"lng":44.02091,"minZoom":5},{"name":"São José dos Campos","lat":-23.17944,"lng":-45.88694,"minZoom":5},{"name":"Santa María Chimalhuacán","lat":19.42155,"lng":-98.95038,"minZoom":5},{"name":"Taizhou","lat":32.49069,"lng":119.90812,"minZoom":5},{"name":"Xingtai","lat":37.06306,"lng":114.49417,"minZoom":5},{"name":"Borivli","lat":19.23496,"lng":72.85976,"minZoom":5},{"name":"Torreón","lat":25.54389,"lng":-103.41898,"minZoom":5},{"name":"Yaroslavl","lat":57.62987,"lng":39.87368,"minZoom":5},{"name":"Benoni","lat":-26.18848,"lng":28.32078,"minZoom":5},{"name":"Hamamatsu","lat":34.7,"lng":137.73333,"minZoom":5},{"name":"Cochin","lat":9.93988,"lng":76.26022,"minZoom":5},{"name":"Jinzhou","lat":41.10778,"lng":121.14167,"minZoom":5},{"name":"Amrāvati","lat":20.93333,"lng":77.75,"minZoom":5},{"name":"Abu Dhabi","lat":24.45118,"lng":54.39696,"minZoom":5},{"name":"Haiphong","lat":20.86481,"lng":106.68345,"minZoom":5},{"name":"Washington, D.C.","lat":38.89511,"lng":-77.03637,"minZoom":5},{"name":"Islamabad","lat":33.72148,"lng":73.04329,"minZoom":5},{"name":"Kirkuk","lat":35.46806,"lng":44.39222,"minZoom":5},{"name":"Sāngli","lat":16.85438,"lng":74.56417,"minZoom":5},{"name":"Milwaukee","lat":43.0389,"lng":-87.90647,"minZoom":5},{"name":"Vancouver","lat":49.24966,"lng":-123.11934,"minZoom":5},{"name":"Scarborough","lat":43.77223,"lng":-79.25666,"minZoom":5},{"name":"Shuangyashan","lat":46.63611,"lng":131.15389,"minZoom":5},{"name":"Situbondo","lat":-7.70623,"lng":114.00976,"minZoom":5},{"name":"Barnaul","lat":53.36056,"lng":83.76361,"minZoom":5},{"name":"Rotterdam","lat":51.9225,"lng":4.47917,"minZoom":5},{"name":"Morelia","lat":19.70078,"lng":-101.18443,"minZoom":5},{"name":"Luancheng","lat":37.87917,"lng":114.65167,"minZoom":5},{"name":"Rasht","lat":37.27611,"lng":49.58862,"minZoom":5},{"name":"Abeokuta","lat":7.15571,"lng":3.34509,"minZoom":5},{"name":"Essen","lat":51.45657,"lng":7.01228,"minZoom":5},{"name":"Kayseri","lat":38.73222,"lng":35.48528,"minZoom":5},{"name":"Glasgow","lat":55.86515,"lng":-4.25763,"minZoom":5},{"name":"Gold Coast","lat":-28.00029,"lng":153.43088,"minZoom":5},{"name":"Yingkou","lat":40.66482,"lng":122.22833,"minZoom":5},{"name":"Abuja","lat":9.05785,"lng":7.49508,"minZoom":5},{"name":"Las Piñas","lat":14.45056,"lng":120.98278,"minZoom":5},{"name":"Zhangzhou","lat":24.51333,"lng":117.65556,"minZoom":5},{"name":"Stuttgart","lat":48.78232,"lng":9.17702,"minZoom":5},{"name":"Reynosa","lat":26.08061,"lng":-98.28835,"minZoom":5},{"name":"Dortmund","lat":51.51494,"lng":7.466,"minZoom":5},{"name":"Vladivostok","lat":43.10562,"lng":131.87353,"minZoom":5},{"name":"Irkutsk","lat":52.29778,"lng":104.29639,"minZoom":5},{"name":"Blantyre","lat":-15.78499,"lng":35.00854,"minZoom":5},{"name":"New Kingston","lat":18.00747,"lng":-76.78319,"minZoom":5},{"name":"Üsküdar","lat":41.02274,"lng":29.01366,"minZoom":5},{"name":"Genoa","lat":44.40478,"lng":8.94439,"minZoom":5},{"name":"Cuttack","lat":20.46497,"lng":85.87927,"minZoom":5},{"name":"Oslo","lat":59.91273,"lng":10.74609,"minZoom":5},{"name":"Hachiōji","lat":35.65583,"lng":139.32389,"minZoom":5},{"name":"Khabarovsk","lat":48.48271,"lng":135.08379,"minZoom":5},{"name":"Khabarovsk Vtoroy","lat":48.43776,"lng":135.13329,"minZoom":5},{"name":"Libreville","lat":0.39241,"lng":9.45356,"minZoom":5},{"name":"Kerman","lat":30.28321,"lng":57.07879,"minZoom":5},{"name":"Chiclayo","lat":-6.77137,"lng":-79.84088,"minZoom":5},{"name":"Orūmīyeh","lat":37.55274,"lng":45.07605,"minZoom":5},{"name":"Bahçelievler","lat":41.00231,"lng":28.8598,"minZoom":5},{"name":"Bengbu","lat":32.94083,"lng":117.36083,"minZoom":5},{"name":"Bīkaner","lat":28.01762,"lng":73.31495,"minZoom":5},{"name":"Tlaquepaque","lat":20.64091,"lng":-103.29327,"minZoom":5},{"name":"Tlalpan","lat":19.29513,"lng":-99.16206,"minZoom":5},{"name":"Umraniye","lat":41.01643,"lng":29.12476,"minZoom":5},{"name":"Düsseldorf","lat":51.22172,"lng":6.77616,"minZoom":5},{"name":"Banjarmasin","lat":-3.31987,"lng":114.59075,"minZoom":5},{"name":"Göteborg","lat":57.70716,"lng":11.96679,"minZoom":5},{"name":"Shihezi","lat":44.3023,"lng":86.03694,"minZoom":5},{"name":"Bucaramanga","lat":7.12539,"lng":-73.1198,"minZoom":5},{"name":"South Boston","lat":42.33343,"lng":-71.04949,"minZoom":5},{"name":"Kuching","lat":1.55,"lng":110.33333,"minZoom":5},{"name":"Poznań","lat":52.40692,"lng":16.92993,"minZoom":5},{"name":"Málaga","lat":36.72016,"lng":-4.42034,"minZoom":5},{"name":"Bouaké","lat":7.69385,"lng":-5.03031,"minZoom":5},{"name":"Nyala","lat":12.04888,"lng":24.88069,"minZoom":5},{"name":"Asmara","lat":15.33805,"lng":38.93184,"minZoom":5},{"name":"Sokoto","lat":13.06269,"lng":5.24322,"minZoom":5},{"name":"Uberlândia","lat":-18.91861,"lng":-48.27722,"minZoom":5},{"name":"Onitsha","lat":6.14978,"lng":6.78569,"minZoom":5},{"name":"Honchō","lat":35.70129,"lng":139.98648,"minZoom":5},{"name":"Albuquerque","lat":35.08449,"lng":-106.65114,"minZoom":5},{"name":"Hamhŭng","lat":39.91833,"lng":127.53639,"minZoom":5},{"name":"Sorocaba","lat":-23.50167,"lng":-47.45806,"minZoom":5},{"name":"Helsinki","lat":60.16952,"lng":24.93545,"minZoom":5},{"name":"Warangal","lat":18,"lng":79.58333,"minZoom":5},{"name":"Santiago de Cuba","lat":20.02083,"lng":-75.82667,"minZoom":5},{"name":"Siping","lat":43.16143,"lng":124.37785,"minZoom":5},{"name":"Kagoshima","lat":31.56667,"lng":130.55,"minZoom":5},{"name":"Surakarta","lat":-7.55611,"lng":110.83167,"minZoom":5},{"name":"Huai'an","lat":33.58861,"lng":119.01917,"minZoom":5},{"name":"Bhavnagar","lat":21.76287,"lng":72.15331,"minZoom":5},{"name":"Mar del Plata","lat":-38.00042,"lng":-57.5562,"minZoom":5},{"name":"Bahawalpur","lat":29.39779,"lng":71.6752,"minZoom":5},{"name":"Zahedan","lat":29.4963,"lng":60.8629,"minZoom":5},{"name":"Aden","lat":12.77944,"lng":45.03667,"minZoom":5},{"name":"Nanded","lat":19.16023,"lng":77.31497,"minZoom":5},{"name":"Orenburg","lat":51.7727,"lng":55.0988,"minZoom":5},{"name":"Changwon","lat":35.22806,"lng":128.68111,"minZoom":5},{"name":"Pristina","lat":42.67272,"lng":21.16688,"minZoom":5},{"name":"Jiamusi","lat":46.79927,"lng":130.31633,"minZoom":5},{"name":"Antipolo","lat":14.62578,"lng":121.12251,"minZoom":5},{"name":"Neijiang","lat":29.58354,"lng":105.06216,"minZoom":5},{"name":"Bremen","lat":53.07582,"lng":8.80717,"minZoom":5},{"name":"Meknès","lat":33.89352,"lng":-5.54727,"minZoom":5},{"name":"Banqiao","lat":25.01427,"lng":121.46719,"minZoom":5},{"name":"Sargodha","lat":32.08586,"lng":72.67418,"minZoom":5},{"name":"Bangui","lat":4.36122,"lng":18.55496,"minZoom":5},{"name":"Vilnius","lat":54.68916,"lng":25.2798,"minZoom":5},{"name":"Yangzhou","lat":32.39722,"lng":119.43583,"minZoom":5},{"name":"Novokuznetsk","lat":53.7557,"lng":87.1099,"minZoom":5},{"name":"Kisangani","lat":0.51528,"lng":25.19099,"minZoom":5},{"name":"Port Said","lat":31.26531,"lng":32.3019,"minZoom":5},{"name":"Mersin","lat":36.81196,"lng":34.63886,"minZoom":5},{"name":"Tuxtla","lat":16.75973,"lng":-93.11308,"minZoom":5},{"name":"Raurkela","lat":22.22496,"lng":84.86414,"minZoom":5},{"name":"Warri","lat":5.51737,"lng":5.75006,"minZoom":5},{"name":"Guli","lat":28.88162,"lng":120.03308,"minZoom":5},{"name":"Ebute Ikorodu","lat":6.60086,"lng":3.48818,"minZoom":5},{"name":"Tanggu","lat":39.02111,"lng":117.64694,"minZoom":5},{"name":"Jiangmen","lat":22.58333,"lng":113.08333,"minZoom":5},{"name":"Cuauhtémoc","lat":19.44506,"lng":-99.14612,"minZoom":5},{"name":"Tucson","lat":32.22174,"lng":-110.92648,"minZoom":5},{"name":"Nashville","lat":36.16589,"lng":-86.78444,"minZoom":5},{"name":"Ta’if","lat":21.27028,"lng":40.41583,"minZoom":5},{"name":"Beira","lat":-19.84361,"lng":34.83889,"minZoom":5},{"name":"Guntur","lat":16.29974,"lng":80.45729,"minZoom":5},{"name":"Touba","lat":14.85,"lng":-15.88333,"minZoom":5},{"name":"Québec","lat":46.81228,"lng":-71.21454,"minZoom":5},{"name":"Hamadān","lat":34.79922,"lng":48.51456,"minZoom":5},{"name":"Cangzhou","lat":38.31667,"lng":116.86667,"minZoom":5},{"name":"San Salvador","lat":13.68935,"lng":-89.18718,"minZoom":5},{"name":"Dehra Dūn","lat":30.32443,"lng":78.03392,"minZoom":5},{"name":"Cuiabá","lat":-15.59611,"lng":-56.09667,"minZoom":5},{"name":"Petaling Jaya","lat":3.10726,"lng":101.60671,"minZoom":5},{"name":"Macau","lat":22.20056,"lng":113.54611,"minZoom":5},{"name":"Bhayandar","lat":19.30157,"lng":72.85107,"minZoom":5},{"name":"Esenler","lat":41.0435,"lng":28.87619,"minZoom":5},{"name":"Ryazan’","lat":54.6269,"lng":39.6916,"minZoom":5},{"name":"Fresno","lat":36.74773,"lng":-119.77237,"minZoom":5},{"name":"Hamilton","lat":43.25011,"lng":-79.84963,"minZoom":5},{"name":"Tyumen","lat":57.15222,"lng":65.52722,"minZoom":5},{"name":"Durgapur","lat":23.51583,"lng":87.30801,"minZoom":5},{"name":"Victoria de Durango","lat":24.02032,"lng":-104.65756,"minZoom":5},{"name":"Ajmer","lat":26.4521,"lng":74.63867,"minZoom":5},{"name":"Lisbon","lat":38.71667,"lng":-9.13333,"minZoom":5},{"name":"Changde","lat":29.03205,"lng":111.69844,"minZoom":5},{"name":"Jiaozuo","lat":35.23972,"lng":113.23306,"minZoom":5},{"name":"Ulhasnagar","lat":19.21667,"lng":73.15,"minZoom":5},{"name":"Kolhāpur","lat":16.69563,"lng":74.23167,"minZoom":5},{"name":"Lipetsk","lat":52.60311,"lng":39.57076,"minZoom":5},{"name":"Siliguri","lat":26.71004,"lng":88.42851,"minZoom":5},{"name":"Hannover","lat":52.37052,"lng":9.73322,"minZoom":5},{"name":"Eskişehir","lat":39.77667,"lng":30.52056,"minZoom":5},{"name":"Āzādshahr","lat":34.79049,"lng":48.57011,"minZoom":5},{"name":"Salta","lat":-24.7859,"lng":-65.41166,"minZoom":5},{"name":"Penza","lat":53.20066,"lng":45.00464,"minZoom":5},{"name":"Tembisa","lat":-25.99636,"lng":28.2268,"minZoom":5},{"name":"Bilimora","lat":20.76957,"lng":72.96134,"minZoom":5},{"name":"Mykolayiv","lat":46.96591,"lng":31.9974,"minZoom":5},{"name":"Aparecida de Goiânia","lat":-16.82333,"lng":-49.24389,"minZoom":5},{"name":"Puente Alto","lat":-33.61169,"lng":-70.57577,"minZoom":5},{"name":"Makati City","lat":14.55027,"lng":121.03269,"minZoom":5},{"name":"Tonghua","lat":41.71972,"lng":125.92639,"minZoom":5},{"name":"Naberezhnyye Chelny","lat":55.72545,"lng":52.41122,"minZoom":5},{"name":"Leicester","lat":52.6386,"lng":-1.13169,"minZoom":5},{"name":"Wuhu","lat":31.33728,"lng":118.37351,"minZoom":5},{"name":"Niigata","lat":37.88637,"lng":139.00589,"minZoom":5},{"name":"Karol Bāgh","lat":28.65136,"lng":77.19072,"minZoom":5},{"name":"Leipzig","lat":51.33962,"lng":12.37129,"minZoom":5},{"name":"Kalininskiy","lat":59.99675,"lng":30.3899,"minZoom":5},{"name":"Duisburg","lat":51.43247,"lng":6.76516,"minZoom":5},{"name":"Āsansol","lat":23.68333,"lng":86.98333,"minZoom":5},{"name":"Arāk","lat":34.09493,"lng":49.69809,"minZoom":5},{"name":"Astrakhan","lat":46.34968,"lng":48.04076,"minZoom":5},{"name":"Zhuhai","lat":22.27694,"lng":113.56778,"minZoom":5},{"name":"Pohang","lat":36.02917,"lng":129.36481,"minZoom":6},{"name":"Nürnberg","lat":49.45421,"lng":11.07752,"minZoom":6},{"name":"Shashi","lat":30.30722,"lng":112.24472,"minZoom":6},{"name":"Makhachkala","lat":42.97638,"lng":47.50236,"minZoom":6},{"name":"Cimahi","lat":-6.87222,"lng":107.5425,"minZoom":6},{"name":"Wuwei","lat":37.92672,"lng":102.63202,"minZoom":6},{"name":"Jamnagar","lat":22.47292,"lng":70.06673,"minZoom":6},{"name":"Sacramento","lat":38.58157,"lng":-121.4944,"minZoom":6},{"name":"Aracaju","lat":-10.91111,"lng":-37.07167,"minZoom":6},{"name":"Ajman City","lat":25.40177,"lng":55.47878,"minZoom":6},{"name":"Jianshui","lat":24.2774,"lng":101.224,"minZoom":6},{"name":"Port Sudan","lat":19.61745,"lng":37.21644,"minZoom":6},{"name":"Santa Fe","lat":-31.64881,"lng":-60.70868,"minZoom":6},{"name":"San Pedro Sula","lat":15.50417,"lng":-88.025,"minZoom":6},{"name":"Toluca","lat":19.28786,"lng":-99.65324,"minZoom":6},{"name":"Ciudad López Mateos","lat":19.55793,"lng":-99.25675,"minZoom":6},{"name":"Suez","lat":29.97371,"lng":32.52627,"minZoom":6},{"name":"Dresden","lat":51.05089,"lng":13.73832,"minZoom":6},{"name":"Tomsk","lat":56.49771,"lng":84.97437,"minZoom":6},{"name":"Masina","lat":-4.38361,"lng":15.39139,"minZoom":6},{"name":"Sahāranpur","lat":29.9679,"lng":77.54522,"minZoom":6},{"name":"Cuautitlán Izcalli","lat":19.64388,"lng":-99.21598,"minZoom":6},{"name":"Gulbarga","lat":17.33583,"lng":76.83757,"minZoom":6},{"name":"Bhātpāra","lat":22.86643,"lng":88.40113,"minZoom":6},{"name":"Najaf","lat":32.02594,"lng":44.34625,"minZoom":6},{"name":"Feira de Santana","lat":-12.26667,"lng":-38.96667,"minZoom":6},{"name":"Shah Alam","lat":3.08507,"lng":101.53281,"minZoom":6},{"name":"Mariupol","lat":47.09514,"lng":37.54131,"minZoom":6},{"name":"Himeji","lat":34.81667,"lng":134.7,"minZoom":6},{"name":"Homyel'","lat":52.4345,"lng":30.9754,"minZoom":6},{"name":"Qionghai","lat":19.2425,"lng":110.46417,"minZoom":6},{"name":"Okene","lat":7.55122,"lng":6.23589,"minZoom":6},{"name":"Uijeongbu-si","lat":37.7415,"lng":127.0474,"minZoom":6},{"name":"East London","lat":-33.01529,"lng":27.91162,"minZoom":6},{"name":"Yazd","lat":31.89722,"lng":54.3675,"minZoom":6},{"name":"Hargeysa","lat":9.56,"lng":44.065,"minZoom":6},{"name":"Sialkot","lat":32.49268,"lng":74.53134,"minZoom":6},{"name":"Kemerovo","lat":55.33333,"lng":86.08333,"minZoom":6},{"name":"Yichang","lat":30.71444,"lng":111.28472,"minZoom":6},{"name":"Hwaseong-si","lat":37.20682,"lng":126.8169,"minZoom":6},{"name":"Kansas City","lat":39.09973,"lng":-94.57857,"minZoom":6},{"name":"Yinchuan","lat":38.46806,"lng":106.27306,"minZoom":6},{"name":"Skopje","lat":41.99646,"lng":21.43141,"minZoom":6},{"name":"Vereeniging","lat":-26.67313,"lng":27.92615,"minZoom":6},{"name":"The Hague","lat":52.07667,"lng":4.29861,"minZoom":6},{"name":"Long Beach","lat":33.76696,"lng":-118.18923,"minZoom":6},{"name":"Mixco","lat":14.63077,"lng":-90.60711,"minZoom":6},{"name":"Lyon","lat":45.74846,"lng":4.84671,"minZoom":6},{"name":"Londrina","lat":-23.31028,"lng":-51.16278,"minZoom":6},{"name":"Mesa","lat":33.42227,"lng":-111.82264,"minZoom":6},{"name":"Jiaojiang","lat":28.69844,"lng":121.47331,"minZoom":6},{"name":"Matsudo","lat":35.77995,"lng":139.90144,"minZoom":6},{"name":"Juiz de Fora","lat":-21.76417,"lng":-43.35028,"minZoom":6},{"name":"Nishinomiya-hama","lat":34.71562,"lng":135.33199,"minZoom":6},{"name":"Tula","lat":54.19609,"lng":37.61822,"minZoom":6},{"name":"Staten Island","lat":40.56233,"lng":-74.13986,"minZoom":6},{"name":"Kawaguchi","lat":35.80521,"lng":139.71072,"minZoom":6},{"name":"Ciudad Apodaca","lat":25.78195,"lng":-100.18839,"minZoom":6},{"name":"Zunyi","lat":27.68667,"lng":106.90722,"minZoom":6},{"name":"Jiaxing","lat":30.7522,"lng":120.75,"minZoom":6},{"name":"Belford Roxo","lat":-22.76417,"lng":-43.39944,"minZoom":6},{"name":"Jammu","lat":32.73569,"lng":74.86911,"minZoom":6},{"name":"Liaoyuan","lat":42.90361,"lng":125.13583,"minZoom":6},{"name":"Edinburgh","lat":55.95206,"lng":-3.19648,"minZoom":6},{"name":"Atlanta","lat":33.749,"lng":-84.38798,"minZoom":6},{"name":"Kananga","lat":-5.89624,"lng":22.41659,"minZoom":6},{"name":"Bloemfontein","lat":-29.12107,"lng":26.214,"minZoom":6},{"name":"Xiangyang","lat":32.0422,"lng":112.14479,"minZoom":6},{"name":"Gdańsk","lat":54.35227,"lng":18.64912,"minZoom":6},{"name":"Calabar","lat":4.95893,"lng":8.32695,"minZoom":6},{"name":"Dadukou","lat":26.5479,"lng":101.70539,"minZoom":6},{"name":"Joinville","lat":-26.30444,"lng":-48.84556,"minZoom":6},{"name":"Ḩamāh","lat":35.13179,"lng":36.75783,"minZoom":6},{"name":"Kurnool","lat":15.82887,"lng":78.03602,"minZoom":6},{"name":"Antwerpen","lat":51.22047,"lng":4.40026,"minZoom":6},{"name":"Kanazawa","lat":36.6,"lng":136.61667,"minZoom":6},{"name":"Karabağlar","lat":38.37396,"lng":27.1352,"minZoom":6},{"name":"Zamboanga","lat":6.91028,"lng":122.07389,"minZoom":6},{"name":"Kirov","lat":58.59665,"lng":49.66007,"minZoom":6},{"name":"Ujjain","lat":23.18239,"lng":75.77643,"minZoom":6},{"name":"Kota Kinabalu","lat":5.9749,"lng":116.0724,"minZoom":6},{"name":"Colorado Springs","lat":38.83388,"lng":-104.82136,"minZoom":6},{"name":"Niterói","lat":-22.88333,"lng":-43.10361,"minZoom":6},{"name":"Hengshui","lat":37.73222,"lng":115.70111,"minZoom":6},{"name":"Tabuk","lat":28.3998,"lng":36.57151,"minZoom":6},{"name":"Pontianak","lat":-0.03194,"lng":109.325,"minZoom":6},{"name":"Leeds","lat":53.79648,"lng":-1.54785,"minZoom":6},{"name":"Namp’o","lat":38.7375,"lng":125.40778,"minZoom":6},{"name":"Bacolod City","lat":10.66667,"lng":122.95,"minZoom":6},{"name":"São João de Meriti","lat":-22.80389,"lng":-43.37222,"minZoom":6},{"name":"Mansilingan","lat":10.63111,"lng":122.97889,"minZoom":6},{"name":"Virginia Beach","lat":36.85293,"lng":-75.97799,"minZoom":6},{"name":"Rāmgundam","lat":18.80084,"lng":79.45206,"minZoom":6},{"name":"Luhansk","lat":48.56705,"lng":39.31706,"minZoom":6},{"name":"Manado","lat":1.48218,"lng":124.84892,"minZoom":6},{"name":"Karagandy","lat":49.80187,"lng":73.10211,"minZoom":6},{"name":"Raleigh","lat":35.7721,"lng":-78.63861,"minZoom":6},{"name":"Jining","lat":35.405,"lng":116.58139,"minZoom":6},{"name":"Constantine","lat":36.365,"lng":6.61472,"minZoom":6},{"name":"Wenshan City","lat":23.36306,"lng":104.25047,"minZoom":6},{"name":"Juba","lat":4.85165,"lng":31.58247,"minZoom":6},{"name":"Muratpaşa","lat":36.89157,"lng":30.76498,"minZoom":6},{"name":"Utsunomiya","lat":36.56667,"lng":139.88333,"minZoom":6},{"name":"Heroica Matamoros","lat":25.87972,"lng":-97.50417,"minZoom":6},{"name":"Şanlıurfa","lat":37.16708,"lng":38.79392,"minZoom":6},{"name":"Chengde","lat":40.9519,"lng":117.95883,"minZoom":6},{"name":"Ōita","lat":33.23333,"lng":131.6,"minZoom":6},{"name":"Cardiff","lat":51.48,"lng":-3.18,"minZoom":6},{"name":"San Juan","lat":-31.5375,"lng":-68.53639,"minZoom":6},{"name":"Cheboksary","lat":56.13222,"lng":47.25194,"minZoom":6},{"name":"Boksburg","lat":-26.21197,"lng":28.25958,"minZoom":6},{"name":"Cagayan de Oro","lat":8.48222,"lng":124.64722,"minZoom":6},{"name":"Omaha","lat":41.25626,"lng":-95.94043,"minZoom":6},{"name":"Matsuyama","lat":33.83916,"lng":132.76574,"minZoom":6},{"name":"San Nicolás de los Garza","lat":25.74167,"lng":-100.30222,"minZoom":6},{"name":"Amagasaki","lat":34.71667,"lng":135.41667,"minZoom":6},{"name":"Carrefour","lat":18.54114,"lng":-72.39922,"minZoom":6},{"name":"Shyamnagar","lat":22.83333,"lng":88.36667,"minZoom":6},{"name":"Dasmariñas","lat":14.32944,"lng":120.93667,"minZoom":6},{"name":"Malatya","lat":38.35018,"lng":38.31667,"minZoom":6},{"name":"Miami","lat":25.77427,"lng":-80.19366,"minZoom":6},{"name":"Nangi","lat":22.50833,"lng":88.21528,"minZoom":6},{"name":"Pereira","lat":4.81333,"lng":-75.69611,"minZoom":6},{"name":"Kozhikode","lat":11.24802,"lng":75.7804,"minZoom":6},{"name":"Mawlamyine","lat":16.49051,"lng":97.62825,"minZoom":6},{"name":"Iquitos","lat":-3.74912,"lng":-73.25383,"minZoom":6},{"name":"Kurashiki","lat":34.58333,"lng":133.76667,"minZoom":6},{"name":"Sunch’ŏn","lat":39.43167,"lng":125.93278,"minZoom":6},{"name":"Sultangazi","lat":41.10652,"lng":28.86847,"minZoom":6},{"name":"Garoua","lat":9.30143,"lng":13.39771,"minZoom":6},{"name":"Murcia","lat":37.98704,"lng":-1.13004,"minZoom":6},{"name":"Mwanza","lat":-2.51667,"lng":32.9,"minZoom":6},{"name":"Uyo","lat":5.05127,"lng":7.9335,"minZoom":6},{"name":"Bei’an","lat":48.26667,"lng":126.6,"minZoom":6},{"name":"Kousséri","lat":12.07689,"lng":15.03063,"minZoom":6},{"name":"Mālegaon","lat":20.54966,"lng":74.53462,"minZoom":6},{"name":"Davangere","lat":14.46693,"lng":75.92694,"minZoom":6},{"name":"Kaliningrad","lat":54.70649,"lng":20.51095,"minZoom":6},{"name":"Karbala","lat":32.61603,"lng":44.02488,"minZoom":6},{"name":"Masan","lat":35.12725,"lng":126.83149,"minZoom":6},{"name":"Ananindeua","lat":-1.36556,"lng":-48.37222,"minZoom":6},{"name":"Balikpapan","lat":-1.26753,"lng":116.82887,"minZoom":6},{"name":"Brampton","lat":43.68341,"lng":-79.76633,"minZoom":6},{"name":"Toulouse","lat":43.60426,"lng":1.44367,"minZoom":6},{"name":"Tel Aviv","lat":32.08088,"lng":34.78057,"minZoom":6},{"name":"Namangan","lat":40.9983,"lng":71.67257,"minZoom":6},{"name":"Katsina","lat":12.99082,"lng":7.60177,"minZoom":6},{"name":"Welkom","lat":-27.97742,"lng":26.73506,"minZoom":6},{"name":"Santa Marta","lat":11.24079,"lng":-74.19904,"minZoom":6},{"name":"Al Maḩallah al Kubrá","lat":30.97063,"lng":31.1669,"minZoom":6},{"name":"Venustiano Carranza","lat":19.44361,"lng":-99.10499,"minZoom":6},{"name":"Jalgaon","lat":21.00292,"lng":75.56602,"minZoom":6},{"name":"Yokosuka","lat":35.28361,"lng":139.66722,"minZoom":6},{"name":"Akola","lat":20.70957,"lng":76.9981,"minZoom":6},{"name":"Belgaum","lat":15.85212,"lng":74.50447,"minZoom":6},{"name":"Veracruz","lat":19.18095,"lng":-96.1429,"minZoom":6},{"name":"East Jerusalem","lat":31.78336,"lng":35.23388,"minZoom":6},{"name":"Luqiao","lat":28.58023,"lng":121.37491,"minZoom":6},{"name":"Bryansk","lat":53.25209,"lng":34.37167,"minZoom":6},{"name":"Maltepe","lat":40.93567,"lng":29.15507,"minZoom":6},{"name":"Al Kharj","lat":24.15541,"lng":47.33457,"minZoom":6},{"name":"Barcelona","lat":10.13625,"lng":-64.68618,"minZoom":6},{"name":"Chaozhou","lat":23.65396,"lng":116.62262,"minZoom":6},{"name":"Xalapa de Enríquez","lat":19.53124,"lng":-96.91589,"minZoom":6},{"name":"Ado-Ekiti","lat":7.62329,"lng":5.22087,"minZoom":6},{"name":"Bratislava","lat":48.14816,"lng":17.10674,"minZoom":6},{"name":"Gaya","lat":24.79686,"lng":85.00385,"minZoom":6},{"name":"Udaipur","lat":24.58584,"lng":73.71346,"minZoom":6},{"name":"Likasi","lat":-10.98303,"lng":26.7384,"minZoom":6},{"name":"Luxor","lat":25.69893,"lng":32.6421,"minZoom":6},{"name":"Ibagué","lat":4.43889,"lng":-75.23222,"minZoom":6},{"name":"Shaoxing","lat":30.00237,"lng":120.57864,"minZoom":6},{"name":"Ivanovo","lat":56.99719,"lng":40.97139,"minZoom":6},{"name":"Erzurum","lat":39.90861,"lng":41.27694,"minZoom":6},{"name":"Akure","lat":7.25256,"lng":5.19312,"minZoom":6},{"name":"Asyūţ","lat":27.18096,"lng":31.18368,"minZoom":6},{"name":"Jambi City","lat":-1.6,"lng":103.61667,"minZoom":6},{"name":"Al Manşūrah","lat":31.03637,"lng":31.38069,"minZoom":6},{"name":"Oakland","lat":37.80437,"lng":-122.2708,"minZoom":6},{"name":"Korba","lat":22.3458,"lng":82.69633,"minZoom":6},{"name":"Bokāro","lat":23.78707,"lng":85.95644,"minZoom":6},{"name":"San Juan","lat":18.46633,"lng":-66.10572,"minZoom":6},{"name":"Kolwezi","lat":-10.71484,"lng":25.46674,"minZoom":6},{"name":"Auckland","lat":-36.84853,"lng":174.76349,"minZoom":6},{"name":"Sukkur","lat":27.70323,"lng":68.85889,"minZoom":6},{"name":"Mangalore","lat":12.91723,"lng":74.85603,"minZoom":6},{"name":"Luohe","lat":33.56394,"lng":114.04272,"minZoom":6},{"name":"Pasay","lat":14.53748,"lng":121.00144,"minZoom":6},{"name":"Sevastopol","lat":44.60795,"lng":33.52134,"minZoom":6},{"name":"Azcapotzalco","lat":19.48698,"lng":-99.18594,"minZoom":6},{"name":"Shymkent","lat":42.3,"lng":69.6,"minZoom":6},{"name":"Yangquan","lat":37.8575,"lng":113.56333,"minZoom":6},{"name":"Magnitogorsk","lat":53.41861,"lng":59.04722,"minZoom":6},{"name":"Jhānsi","lat":25.45887,"lng":78.57994,"minZoom":6},{"name":"Florianópolis","lat":-27.59667,"lng":-48.54917,"minZoom":6},{"name":"Wandsbek","lat":53.58334,"lng":10.08305,"minZoom":6},{"name":"Santos","lat":-23.96083,"lng":-46.33361,"minZoom":6},{"name":"Maturín","lat":9.74569,"lng":-63.18323,"minZoom":6},{"name":"Minneapolis","lat":44.97997,"lng":-93.26384,"minZoom":6},{"name":"Thoothukudi","lat":8.76735,"lng":78.13425,"minZoom":6},{"name":"Ardabīl","lat":38.2498,"lng":48.2933,"minZoom":6},{"name":"Nagasaki","lat":32.75,"lng":129.88333,"minZoom":6},{"name":"Chaoyang","lat":41.57028,"lng":120.45861,"minZoom":6},{"name":"Gaza","lat":31.50161,"lng":34.46672,"minZoom":6},{"name":"Kursk","lat":51.73733,"lng":36.18735,"minZoom":6},{"name":"Tonalá","lat":20.62445,"lng":-103.23423,"minZoom":6},{"name":"Jeju City","lat":33.50972,"lng":126.52194,"minZoom":6},{"name":"Panamá","lat":8.9936,"lng":-79.51973,"minZoom":6},{"name":"Xochimilco","lat":19.25465,"lng":-99.10356,"minZoom":6},{"name":"Szczecin","lat":53.42894,"lng":14.55302,"minZoom":6},{"name":"Biên Hòa","lat":10.94469,"lng":106.82432,"minZoom":6},{"name":"Villa Nueva","lat":14.52512,"lng":-90.58544,"minZoom":6},{"name":"Ribeirão das Neves","lat":-19.76694,"lng":-44.08667,"minZoom":6},{"name":"Hirakata","lat":34.81352,"lng":135.64914,"minZoom":6},{"name":"Oujda-Angad","lat":34.68139,"lng":-1.90858,"minZoom":6},{"name":"Tanda","lat":30.78847,"lng":31.00192,"minZoom":6},{"name":"Newcastle","lat":-27.75796,"lng":29.9318,"minZoom":6},{"name":"Nellore","lat":14.44992,"lng":79.98697,"minZoom":6},{"name":"Hsinchu","lat":24.80361,"lng":120.96861,"minZoom":6},{"name":"Jixi","lat":45.30109,"lng":130.95718,"minZoom":6},{"name":"Zanzibar","lat":-6.16394,"lng":39.19793,"minZoom":6},{"name":"Tulsa","lat":36.15398,"lng":-95.99277,"minZoom":6},{"name":"Taoyuan City","lat":24.99368,"lng":121.29696,"minZoom":6},{"name":"Kassala","lat":15.45099,"lng":36.39998,"minZoom":6},{"name":"Lekki","lat":6.40948,"lng":4.09152,"minZoom":6},{"name":"Palma","lat":39.56939,"lng":2.65024,"minZoom":6},{"name":"Kitwe","lat":-12.80243,"lng":28.21323,"minZoom":6},{"name":"Nasiriyah","lat":31.05799,"lng":46.25726,"minZoom":6},{"name":"Tver","lat":56.85836,"lng":35.90057,"minZoom":6},{"name":"West Jerusalem","lat":31.78199,"lng":35.21961,"minZoom":6},{"name":"Machida","lat":35.54028,"lng":139.45083,"minZoom":6},{"name":"Yangjiang","lat":21.85563,"lng":111.96272,"minZoom":6},{"name":"Khmelnytskyi","lat":49.42161,"lng":26.99653,"minZoom":6},{"name":"Gifu-shi","lat":35.42291,"lng":136.76039,"minZoom":6},{"name":"Tiruppur","lat":11.11541,"lng":77.35456,"minZoom":6},{"name":"Keelung","lat":25.12825,"lng":121.7419,"minZoom":6},{"name":"Al Hoceïma","lat":35.25165,"lng":-3.93723,"minZoom":6},{"name":"Manchester","lat":53.48095,"lng":-2.23743,"minZoom":6},{"name":"Surrey","lat":49.10635,"lng":-122.82509,"minZoom":6},{"name":"Vila Velha","lat":-20.32972,"lng":-40.2925,"minZoom":6},{"name":"Weifang","lat":36.71,"lng":119.10194,"minZoom":6},{"name":"Fujisawa","lat":35.34926,"lng":139.47666,"minZoom":6},{"name":"Ndola","lat":-12.95867,"lng":28.63659,"minZoom":6},{"name":"Kollam","lat":8.88113,"lng":76.58469,"minZoom":6},{"name":"Serra","lat":-20.12861,"lng":-40.30778,"minZoom":6},{"name":"Samsun","lat":41.27976,"lng":36.3361,"minZoom":6},{"name":"Tallinn","lat":59.43696,"lng":24.75353,"minZoom":6},{"name":"Bamenda","lat":5.9597,"lng":10.14597,"minZoom":6},{"name":"El Obeid","lat":13.18421,"lng":30.21669,"minZoom":6},{"name":"Bello","lat":6.33732,"lng":-75.55795,"minZoom":6},{"name":"Xinpu","lat":34.59972,"lng":119.15944,"minZoom":6},{"name":"Sandakan","lat":5.8402,"lng":118.1179,"minZoom":6},{"name":"Buraydah","lat":26.32599,"lng":43.97497,"minZoom":6},{"name":"Kandahār","lat":31.61332,"lng":65.71013,"minZoom":6},{"name":"Diadema","lat":-23.68611,"lng":-46.62278,"minZoom":6},{"name":"Wichita","lat":37.69224,"lng":-97.33754,"minZoom":6},{"name":"New Orleans","lat":29.95465,"lng":-90.07507,"minZoom":6},{"name":"Comilla","lat":23.46186,"lng":91.18503,"minZoom":6},{"name":"Samut Prakan","lat":13.59934,"lng":100.59675,"minZoom":6},{"name":"Nampula","lat":-15.11646,"lng":39.2666,"minZoom":6},{"name":"Arlington","lat":32.73569,"lng":-97.10807,"minZoom":6},{"name":"Cleveland","lat":41.4995,"lng":-81.69541,"minZoom":6},{"name":"Bissau","lat":11.86357,"lng":-15.59767,"minZoom":6},{"name":"Iloilo","lat":10.69694,"lng":122.56444,"minZoom":6},{"name":"Khamis Mushait","lat":18.3,"lng":42.73333,"minZoom":6},{"name":"Campos dos Goytacazes","lat":-21.75227,"lng":-41.33044,"minZoom":6},{"name":"Resistencia","lat":-27.46056,"lng":-58.98389,"minZoom":6},{"name":"Mişrātah","lat":32.37535,"lng":15.09254,"minZoom":6},{"name":"Mauá","lat":-23.66778,"lng":-46.46139,"minZoom":6},{"name":"Abomey-Calavi","lat":6.44852,"lng":2.35566,"minZoom":6},{"name":"Bochum","lat":51.48165,"lng":7.21648,"minZoom":6},{"name":"Benito Juárez","lat":19.3727,"lng":-99.1564,"minZoom":6},{"name":"Sector 3","lat":44.4234,"lng":26.16874,"minZoom":6},{"name":"Toyonaka","lat":34.78244,"lng":135.46932,"minZoom":6},{"name":"Iztacalco","lat":19.39528,"lng":-99.09778,"minZoom":6},{"name":"Betim","lat":-19.96778,"lng":-44.19833,"minZoom":6},{"name":"Fukuyama","lat":34.48333,"lng":133.36667,"minZoom":6},{"name":"N’dalatando","lat":-9.29782,"lng":14.91162,"minZoom":6},{"name":"Delmas 73","lat":18.54472,"lng":-72.30278,"minZoom":6},{"name":"Pasto","lat":1.21361,"lng":-77.28111,"minZoom":6},{"name":"Batman","lat":37.88738,"lng":41.13221,"minZoom":6},{"name":"Wellington","lat":-41.28664,"lng":174.77557,"minZoom":6},{"name":"Las Palmas de Gran Canaria","lat":28.09973,"lng":-15.41343,"minZoom":6},{"name":"Mazatlán","lat":23.2329,"lng":-106.4062,"minZoom":6},{"name":"Caxias do Sul","lat":-29.16806,"lng":-51.17944,"minZoom":6},{"name":"Nizhny Tagil","lat":57.91944,"lng":59.965,"minZoom":6},{"name":"Irapuato","lat":20.67675,"lng":-101.35628,"minZoom":6},{"name":"Bochum-Hordel","lat":51.50168,"lng":7.1756,"minZoom":6},{"name":"Dezhou","lat":37.45127,"lng":116.31046,"minZoom":6},{"name":"Krugersdorp","lat":-26.08577,"lng":27.77515,"minZoom":6},{"name":"Pānihāti","lat":22.69089,"lng":88.37404,"minZoom":6},{"name":"Shibganj","lat":25.00146,"lng":89.32266,"minZoom":6},{"name":"Toyohashi","lat":34.76667,"lng":137.38333,"minZoom":6},{"name":"Zhoukou","lat":33.63333,"lng":114.63333,"minZoom":6},{"name":"Laval","lat":45.56995,"lng":-73.692,"minZoom":6},{"name":"Huancayo","lat":-12.06513,"lng":-75.20486,"minZoom":6},{"name":"Makiyivka","lat":48.04782,"lng":37.92576,"minZoom":6},{"name":"Putian","lat":25.43944,"lng":119.01028,"minZoom":6},{"name":"Kahramanmaraş","lat":37.5847,"lng":36.92641,"minZoom":6},{"name":"Minato","lat":34.2152,"lng":135.1501,"minZoom":6},{"name":"Tirana","lat":41.3275,"lng":19.81889,"minZoom":6},{"name":"São José do Rio Preto","lat":-20.81972,"lng":-49.37944,"minZoom":6},{"name":"Kaunas","lat":54.90272,"lng":23.90961,"minZoom":6},{"name":"Nuevo Laredo","lat":27.47629,"lng":-99.51639,"minZoom":6},{"name":"Bakersfield","lat":35.37329,"lng":-119.01871,"minZoom":6},{"name":"Zhangjiakou Shi Xuanhua Qu","lat":40.61028,"lng":115.04472,"minZoom":6},{"name":"Seremban","lat":2.7297,"lng":101.9381,"minZoom":6},{"name":"Miguel Hidalgo","lat":19.43411,"lng":-99.20024,"minZoom":6},{"name":"Stoke-on-Trent","lat":53.00415,"lng":-2.18538,"minZoom":6},{"name":"Pingxiang","lat":27.61672,"lng":113.85353,"minZoom":6},{"name":"Van","lat":38.49457,"lng":43.38323,"minZoom":6},{"name":"Honolulu","lat":21.30694,"lng":-157.85833,"minZoom":6},{"name":"Abadan","lat":30.3392,"lng":48.3043,"minZoom":6},{"name":"Fenghuang","lat":27.93557,"lng":109.59961,"minZoom":6},{"name":"Puerto La Cruz","lat":10.21382,"lng":-64.6328,"minZoom":6},{"name":"Brno","lat":49.19522,"lng":16.60796,"minZoom":6},{"name":"Mahilyow","lat":53.9168,"lng":30.3449,"minZoom":6},{"name":"Natore","lat":24.41112,"lng":88.98673,"minZoom":6},{"name":"Tampa","lat":27.94752,"lng":-82.45843,"minZoom":6},{"name":"Sector 6","lat":44.43579,"lng":26.01649,"minZoom":6},{"name":"Canberra","lat":-35.28346,"lng":149.12807,"minZoom":6},{"name":"Nara-shi","lat":34.68505,"lng":135.80485,"minZoom":6},{"name":"Ahmadnagar","lat":19.09457,"lng":74.73843,"minZoom":6},{"name":"Dhūlia","lat":20.9013,"lng":74.77737,"minZoom":6},{"name":"Olinda","lat":-8.00889,"lng":-34.85528,"minZoom":6},{"name":"Kenitra","lat":34.26101,"lng":-6.5802,"minZoom":6},{"name":"Bydgoszcz","lat":53.1235,"lng":18.00762,"minZoom":6},{"name":"Kuantan","lat":3.8077,"lng":103.326,"minZoom":6},{"name":"Bologna","lat":44.49381,"lng":11.33875,"minZoom":6},{"name":"Cheonan","lat":36.8065,"lng":127.1522,"minZoom":6},{"name":"Petare","lat":10.47679,"lng":-66.80786,"minZoom":6},{"name":"Larkana","lat":27.55898,"lng":68.21204,"minZoom":6},{"name":"Al Qadarif","lat":14.03493,"lng":35.38344,"minZoom":6},{"name":"Christchurch","lat":-43.53333,"lng":172.63333,"minZoom":6},{"name":"Stavropol’","lat":45.0428,"lng":41.9734,"minZoom":6},{"name":"Toyota","lat":35.08333,"lng":137.15,"minZoom":6},{"name":"Manukau City","lat":-36.99282,"lng":174.87986,"minZoom":6},{"name":"Zhaoqing","lat":23.04893,"lng":112.46091,"minZoom":6},{"name":"Ataşehir","lat":40.9833,"lng":29.1167,"minZoom":6},{"name":"Bhāgalpur","lat":25.24446,"lng":86.97183,"minZoom":6},{"name":"Shekhupura","lat":31.71287,"lng":73.98556,"minZoom":6},{"name":"Carapicuíba","lat":-23.52272,"lng":-46.835,"minZoom":6},{"name":"Wuppertal","lat":51.25627,"lng":7.14816,"minZoom":6},{"name":"Tamale","lat":9.40079,"lng":-0.8393,"minZoom":6},{"name":"Ulan-Ude","lat":51.82721,"lng":107.60627,"minZoom":6},{"name":"Nagano","lat":36.65,"lng":138.18333,"minZoom":6},{"name":"Bobo-Dioulasso","lat":11.17715,"lng":-4.2979,"minZoom":6},{"name":"Lublin","lat":51.25,"lng":22.56667,"minZoom":6},{"name":"Huocheng","lat":44.05305,"lng":80.87173,"minZoom":6},{"name":"Aurora","lat":39.72943,"lng":-104.83192,"minZoom":6},{"name":"Coventry","lat":52.40656,"lng":-1.51217,"minZoom":6},{"name":"Halifax","lat":44.6464,"lng":-63.57291,"minZoom":6},{"name":"Anqing","lat":30.51365,"lng":117.04723,"minZoom":6},{"name":"Taraz","lat":42.9,"lng":71.36667,"minZoom":6},{"name":"San Jose del Monte","lat":14.81389,"lng":121.04528,"minZoom":6},{"name":"Manizales","lat":5.06889,"lng":-75.51738,"minZoom":6},{"name":"Kwangmyŏng","lat":37.47722,"lng":126.86639,"minZoom":6},{"name":"Zanjān","lat":36.67642,"lng":48.49628,"minZoom":6},{"name":"Iwaki","lat":37.05,"lng":140.88333,"minZoom":6},{"name":"Bacoor","lat":14.45896,"lng":120.93851,"minZoom":6},{"name":"Asahikawa","lat":43.77063,"lng":142.36489,"minZoom":6},{"name":"Xico","lat":19.27032,"lng":-98.95088,"minZoom":6},{"name":"Kimhae","lat":35.23417,"lng":128.88111,"minZoom":6},{"name":"Arkhangel’sk","lat":64.5401,"lng":40.5433,"minZoom":6},{"name":"Ambon","lat":-3.69583,"lng":128.18333,"minZoom":6},{"name":"Samarinda","lat":-0.49167,"lng":117.14583,"minZoom":6},{"name":"Benito Juarez","lat":19.3984,"lng":-99.15766,"minZoom":6},{"name":"Bilbao","lat":43.26271,"lng":-2.92528,"minZoom":6},{"name":"Santiago del Estero","lat":-27.79511,"lng":-64.26149,"minZoom":6},{"name":"Takatsuki","lat":34.84833,"lng":135.61678,"minZoom":6},{"name":"Thessaloníki","lat":40.64361,"lng":22.93086,"minZoom":6},{"name":"Villahermosa","lat":17.98689,"lng":-92.93028,"minZoom":6},{"name":"Barinas","lat":8.62261,"lng":-70.20749,"minZoom":6},{"name":"Neiva","lat":2.9273,"lng":-75.28189,"minZoom":6},{"name":"Ciudad General Escobedo","lat":25.79698,"lng":-100.31791,"minZoom":6},{"name":"Okazaki","lat":34.95,"lng":137.16667,"minZoom":6},{"name":"Bandar Abbas","lat":27.1865,"lng":56.2808,"minZoom":6},{"name":"Vinnytsia","lat":49.23278,"lng":28.48097,"minZoom":6},{"name":"Ras Al Khaimah City","lat":25.78953,"lng":55.9432,"minZoom":6},{"name":"Anshun","lat":26.25,"lng":105.93333,"minZoom":6},{"name":"Suita","lat":34.76143,"lng":135.51567,"minZoom":6},{"name":"Wakayama","lat":34.23333,"lng":135.16667,"minZoom":6},{"name":"Anaheim","lat":33.83529,"lng":-117.9145,"minZoom":6},{"name":"Hualien City","lat":23.97694,"lng":121.60444,"minZoom":6},{"name":"Lapu-Lapu City","lat":10.31028,"lng":123.94944,"minZoom":6},{"name":"Punāsa","lat":22.23507,"lng":76.39335,"minZoom":6},{"name":"Diepsloot","lat":-25.93312,"lng":28.01213,"minZoom":6},{"name":"Muzaffarnagar","lat":29.47091,"lng":77.70332,"minZoom":6},{"name":"Florence","lat":43.77925,"lng":11.24626,"minZoom":6},{"name":"Sanandaj","lat":35.31495,"lng":46.99883,"minZoom":6},{"name":"Latur","lat":18.39721,"lng":76.56784,"minZoom":6},{"name":"Campina Grande","lat":-7.23056,"lng":-35.88111,"minZoom":6},{"name":"Etobicoke","lat":43.65421,"lng":-79.56711,"minZoom":6},{"name":"Camagüey","lat":21.38083,"lng":-77.91694,"minZoom":6},{"name":"London","lat":42.98339,"lng":-81.23304,"minZoom":6},{"name":"Chifeng","lat":42.26833,"lng":118.96361,"minZoom":6},{"name":"Hŭngnam","lat":39.83167,"lng":127.61861,"minZoom":6},{"name":"Nur-Sultan","lat":51.1801,"lng":71.44598,"minZoom":6},{"name":"Sector 2","lat":44.4528,"lng":26.13321,"minZoom":6},{"name":"Belgorod","lat":50.61074,"lng":36.58015,"minZoom":6},{"name":"Kosti","lat":13.1629,"lng":32.66347,"minZoom":6},{"name":"Taihecun","lat":45.76347,"lng":130.85048,"minZoom":6},{"name":"Doha","lat":25.28545,"lng":51.53096,"minZoom":6},{"name":"Turmero","lat":10.22856,"lng":-67.47421,"minZoom":6},{"name":"Kurgan","lat":55.45,"lng":65.33333,"minZoom":6},{"name":"Rangpur","lat":25.74664,"lng":89.25166,"minZoom":6},{"name":"Bhimbar","lat":32.97465,"lng":74.07846,"minZoom":6},{"name":"Vitebsk","lat":55.1904,"lng":30.2049,"minZoom":6},{"name":"Iligan","lat":8.2289,"lng":124.24344,"minZoom":6},{"name":"Soledad","lat":10.91843,"lng":-74.76459,"minZoom":6},{"name":"Shiqi","lat":22.51682,"lng":113.38521,"minZoom":6},{"name":"Piracicaba","lat":-22.72528,"lng":-47.64917,"minZoom":6},{"name":"Zürich","lat":47.36667,"lng":8.55,"minZoom":6},{"name":"Kūkatpalli","lat":17.48486,"lng":78.41376,"minZoom":6},{"name":"Jhang Sadr","lat":31.26981,"lng":72.31687,"minZoom":6},{"name":"Arusha","lat":-3.36667,"lng":36.68333,"minZoom":6},{"name":"Ambattūr","lat":13.09818,"lng":80.16152,"minZoom":6},{"name":"Kōriyama","lat":37.4,"lng":140.38333,"minZoom":6},{"name":"Plovdiv","lat":42.15,"lng":24.75,"minZoom":6},{"name":"Celaya","lat":20.52353,"lng":-100.8157,"minZoom":6},{"name":"Chitungwiza","lat":-18.01274,"lng":31.07555,"minZoom":6},{"name":"Kashiwa","lat":35.86224,"lng":139.97732,"minZoom":6},{"name":"Latakia","lat":35.53168,"lng":35.79011,"minZoom":6},{"name":"Aksu","lat":41.18418,"lng":80.27921,"minZoom":6},{"name":"Serekunda","lat":13.43833,"lng":-16.67806,"minZoom":6},{"name":"Tokorozawa","lat":35.79916,"lng":139.46903,"minZoom":6},{"name":"Corrientes","lat":-27.46784,"lng":-58.8344,"minZoom":6},{"name":"Kaluga","lat":54.5293,"lng":36.27542,"minZoom":6},{"name":"Macapá","lat":0.03889,"lng":-51.06639,"minZoom":6},{"name":"West Raleigh","lat":35.78682,"lng":-78.66389,"minZoom":6},{"name":"Cuernavaca","lat":18.9261,"lng":-99.23075,"minZoom":6},{"name":"Nice","lat":43.70313,"lng":7.26608,"minZoom":6},{"name":"Kaesŏng","lat":37.97083,"lng":126.55444,"minZoom":6},{"name":"Ciudad Bolívar","lat":8.12923,"lng":-63.54086,"minZoom":6},{"name":"Kawagoe","lat":35.90861,"lng":139.48528,"minZoom":6},{"name":"Tungi","lat":23.89154,"lng":90.40232,"minZoom":6},{"name":"Krasnogvargeisky","lat":59.97305,"lng":30.47607,"minZoom":6},{"name":"Randburg","lat":-26.0941,"lng":28.00123,"minZoom":6},{"name":"Bellary","lat":15.14205,"lng":76.92398,"minZoom":6},{"name":"Itaquaquecetuba","lat":-23.48611,"lng":-46.34833,"minZoom":6},{"name":"Simferopol","lat":44.95719,"lng":34.11079,"minZoom":6},{"name":"Kochi","lat":33.55,"lng":133.53333,"minZoom":6},{"name":"Sunderland","lat":54.90465,"lng":-1.38222,"minZoom":6},{"name":"Santa Ana","lat":33.74557,"lng":-117.86783,"minZoom":6},{"name":"Bauru","lat":-22.31472,"lng":-49.06056,"minZoom":6},{"name":"San José","lat":9.93333,"lng":-84.08333,"minZoom":6},{"name":"Alicante","lat":38.34517,"lng":-0.48149,"minZoom":6},{"name":"Takamatsu","lat":34.33333,"lng":134.05,"minZoom":6},{"name":"Tieling","lat":42.29306,"lng":123.84139,"minZoom":6},{"name":"Qazvin","lat":36.26877,"lng":50.0041,"minZoom":6},{"name":"Muzaffarpur","lat":26.12259,"lng":85.39055,"minZoom":6},{"name":"Kāmārhāti","lat":22.67111,"lng":88.37472,"minZoom":6},{"name":"Tepic","lat":21.50951,"lng":-104.89569,"minZoom":6},{"name":"Wad Medani","lat":14.40118,"lng":33.51989,"minZoom":6},{"name":"Jincheng","lat":35.50222,"lng":112.83278,"minZoom":6},{"name":"Montes Claros","lat":-16.735,"lng":-43.86167,"minZoom":6},{"name":"Bielefeld","lat":52.03333,"lng":8.53333,"minZoom":6},{"name":"Bujumbura","lat":-3.38193,"lng":29.36142,"minZoom":6},{"name":"Mandaue City","lat":10.32361,"lng":123.92222,"minZoom":6},{"name":"Khorramshahr","lat":30.44079,"lng":48.18428,"minZoom":6},{"name":"Mathura","lat":27.5035,"lng":77.67215,"minZoom":6},{"name":"Khorramabad","lat":33.48778,"lng":48.35583,"minZoom":6},{"name":"Soyapango","lat":13.71024,"lng":-89.13989,"minZoom":6},{"name":"Patiāla","lat":30.33625,"lng":76.3922,"minZoom":6},{"name":"Wŏnsan","lat":39.15278,"lng":127.44361,"minZoom":6},{"name":"Brent","lat":51.55306,"lng":-0.3023,"minZoom":6},{"name":"Pavlodar","lat":52.28333,"lng":76.96667,"minZoom":6},{"name":"Córdoba","lat":37.89155,"lng":-4.77275,"minZoom":6},{"name":"Chānda","lat":19.95076,"lng":79.29523,"minZoom":6},{"name":"Canoas","lat":-29.91778,"lng":-51.18361,"minZoom":6},{"name":"Sochi","lat":43.59917,"lng":39.72569,"minZoom":6},{"name":"Chongjin","lat":41.79556,"lng":129.77583,"minZoom":6},{"name":"Yanji","lat":42.9075,"lng":129.50778,"minZoom":6},{"name":"Bhīlwāra","lat":25.34707,"lng":74.64081,"minZoom":6},{"name":"Tétouan","lat":35.57845,"lng":-5.36837,"minZoom":6},{"name":"Mogi das Cruzes","lat":-23.52278,"lng":-46.18833,"minZoom":6},{"name":"Toyama","lat":36.7,"lng":137.21667,"minZoom":6},{"name":"Piura","lat":-5.19449,"lng":-80.63282,"minZoom":6},{"name":"Birkenhead","lat":53.39337,"lng":-3.01479,"minZoom":6},{"name":"Thrissur","lat":10.51667,"lng":76.21667,"minZoom":6},{"name":"Brahmapur","lat":19.31151,"lng":84.7929,"minZoom":6},{"name":"São Vicente","lat":-23.96306,"lng":-46.39194,"minZoom":6},{"name":"Orël","lat":52.96508,"lng":36.07849,"minZoom":6},{"name":"Corpus Christi","lat":27.80058,"lng":-97.39638,"minZoom":6},{"name":"Suizhou","lat":31.71111,"lng":113.36306,"minZoom":6},{"name":"Posadas","lat":-27.36708,"lng":-55.89608,"minZoom":6},{"name":"Al ‘Amārah","lat":31.83561,"lng":47.14483,"minZoom":6},{"name":"Volzhskiy","lat":48.78583,"lng":44.77973,"minZoom":6},{"name":"Riverside","lat":33.95335,"lng":-117.39616,"minZoom":6},{"name":"Ixtapaluca","lat":19.31556,"lng":-98.88284,"minZoom":6},{"name":"Villavicencio","lat":4.142,"lng":-73.62664,"minZoom":6},{"name":"Jundiaí","lat":-23.18639,"lng":-46.88417,"minZoom":6},{"name":"San Miguelito","lat":9.05032,"lng":-79.47068,"minZoom":6},{"name":"Smolensk","lat":54.7818,"lng":32.0401,"minZoom":6},{"name":"Ciudad del Este","lat":-25.50972,"lng":-54.61111,"minZoom":6},{"name":"Pelotas","lat":-31.76997,"lng":-52.34101,"minZoom":6},{"name":"Kherson","lat":46.65581,"lng":32.6178,"minZoom":6},{"name":"Shāhjānpur","lat":27.88165,"lng":79.90918,"minZoom":6},{"name":"Akita","lat":39.71667,"lng":140.11667,"minZoom":6},{"name":"Thiès","lat":14.78944,"lng":-16.92602,"minZoom":6},{"name":"Maroua","lat":10.59095,"lng":14.31593,"minZoom":6},{"name":"Morón","lat":-34.6509,"lng":-58.61956,"minZoom":6},{"name":"Anápolis","lat":-16.32667,"lng":-48.95278,"minZoom":6},{"name":"Shimoga","lat":13.93157,"lng":75.56791,"minZoom":6},{"name":"Samarkand","lat":39.65417,"lng":66.95972,"minZoom":6},{"name":"Murmansk","lat":68.97917,"lng":33.09251,"minZoom":6},{"name":"Islington","lat":51.53622,"lng":-0.10304,"minZoom":6},{"name":"Holguín","lat":20.88722,"lng":-76.26306,"minZoom":6},{"name":"Ust-Kamenogorsk","lat":49.97143,"lng":82.60586,"minZoom":6},{"name":"Ad Dīwānīyah","lat":31.99289,"lng":44.92552,"minZoom":6},{"name":"Shangrao","lat":28.45179,"lng":117.94287,"minZoom":6},{"name":"Mataram","lat":-8.58333,"lng":116.11667,"minZoom":6},{"name":"Andijon","lat":40.78206,"lng":72.34424,"minZoom":6},{"name":"Reading","lat":51.45625,"lng":-0.97113,"minZoom":6},{"name":"Iaşi","lat":47.16667,"lng":27.6,"minZoom":6},{"name":"Valladolid","lat":41.65518,"lng":-4.72372,"minZoom":6},{"name":"Poltava","lat":49.59373,"lng":34.54073,"minZoom":6},{"name":"New Delhi","lat":28.63576,"lng":77.22445,"minZoom":6},{"name":"Koshigaya","lat":35.89035,"lng":139.78916,"minZoom":6},{"name":"Vladikavkaz","lat":43.03667,"lng":44.66778,"minZoom":6},{"name":"Hrodna","lat":53.6884,"lng":23.8258,"minZoom":6},{"name":"Katowice","lat":50.25841,"lng":19.02754,"minZoom":6},{"name":"Rohtak","lat":28.89447,"lng":76.58917,"minZoom":6},{"name":"Baicheng","lat":45.60746,"lng":122.82076,"minZoom":6},{"name":"Chimbote","lat":-9.08528,"lng":-78.57833,"minZoom":6},{"name":"Cluj-Napoca","lat":46.76667,"lng":23.6,"minZoom":6},{"name":"Calamba","lat":14.21167,"lng":121.16528,"minZoom":6},{"name":"Bauchi","lat":10.31032,"lng":9.84388,"minZoom":6},{"name":"Cherepovets","lat":59.13333,"lng":37.9,"minZoom":6},{"name":"St. Louis","lat":38.62727,"lng":-90.19789,"minZoom":6},{"name":"Armenia","lat":4.53389,"lng":-75.68111,"minZoom":6},{"name":"Al Kūt","lat":32.5128,"lng":45.81817,"minZoom":6},{"name":"Timişoara","lat":45.75372,"lng":21.22571,"minZoom":6},{"name":"Vologda","lat":59.2239,"lng":39.88398,"minZoom":6},{"name":"Şişli","lat":41.06046,"lng":28.98717,"minZoom":6},{"name":"Lexington-Fayette","lat":38.0498,"lng":-84.45855,"minZoom":6},{"name":"Kingston upon Hull","lat":53.7446,"lng":-0.33525,"minZoom":6},{"name":"Soacha","lat":4.57937,"lng":-74.21682,"minZoom":6},{"name":"Temara","lat":33.92866,"lng":-6.90656,"minZoom":6},{"name":"Preston","lat":53.76282,"lng":-2.70452,"minZoom":6},{"name":"Ganja","lat":40.68278,"lng":46.36056,"minZoom":6},{"name":"Lianshan","lat":40.76432,"lng":120.85327,"minZoom":6},{"name":"Denizli","lat":37.77417,"lng":29.0875,"minZoom":6},{"name":"Ikeja","lat":6.59651,"lng":3.34205,"minZoom":6},{"name":"Bonn","lat":50.73438,"lng":7.09549,"minZoom":6},{"name":"Ostrava","lat":49.83465,"lng":18.28204,"minZoom":6},{"name":"Varna","lat":43.21667,"lng":27.91667,"minZoom":6},{"name":"Vitória","lat":-20.31944,"lng":-40.33778,"minZoom":6},{"name":"Wusong","lat":30.95,"lng":117.78333,"minZoom":6},{"name":"Iligan City","lat":8.25,"lng":124.4,"minZoom":6},{"name":"Cusco","lat":-13.52264,"lng":-71.96734,"minZoom":6},{"name":"Maringá","lat":-23.42528,"lng":-51.93861,"minZoom":6},{"name":"Miyazaki","lat":31.91667,"lng":131.41667,"minZoom":6},{"name":"Percut","lat":3.6253,"lng":98.864,"minZoom":6},{"name":"Pucallpa","lat":-8.37915,"lng":-74.55387,"minZoom":6},{"name":"Jingdezhen","lat":29.2947,"lng":117.20789,"minZoom":6},{"name":"Guarujá","lat":-23.99306,"lng":-46.25639,"minZoom":6},{"name":"Sariwŏn","lat":38.50722,"lng":125.75583,"minZoom":6},{"name":"Vladimir","lat":56.13655,"lng":40.39658,"minZoom":6},{"name":"Antofagasta","lat":-23.65236,"lng":-70.3954,"minZoom":6},{"name":"Botshabelo","lat":-29.26737,"lng":26.72595,"minZoom":6},{"name":"Bengkulu","lat":-3.80044,"lng":102.26554,"minZoom":6},{"name":"Butuan","lat":8.94917,"lng":125.54361,"minZoom":6},{"name":"Tampico","lat":22.28519,"lng":-97.87777,"minZoom":6},{"name":"Oshawa","lat":43.90012,"lng":-78.84957,"minZoom":6},{"name":"Cabuyao","lat":14.2726,"lng":121.1262,"minZoom":6},{"name":"Chita","lat":52.03171,"lng":113.50087,"minZoom":6},{"name":"Newcastle","lat":-32.92953,"lng":151.7801,"minZoom":6},{"name":"Valledupar","lat":10.46314,"lng":-73.25322,"minZoom":6},{"name":"Biskra","lat":34.85038,"lng":5.72805,"minZoom":6},{"name":"Mannheim","lat":49.4891,"lng":8.46694,"minZoom":6},{"name":"Chernihiv","lat":51.50551,"lng":31.28487,"minZoom":6},{"name":"Irbid","lat":32.55556,"lng":35.85,"minZoom":6},{"name":"Tumkūr","lat":13.34136,"lng":77.1022,"minZoom":6},{"name":"Chinju","lat":35.19278,"lng":128.08472,"minZoom":6},{"name":"Newport","lat":51.58774,"lng":-2.99835,"minZoom":6},{"name":"Tawau","lat":4.24482,"lng":117.89115,"minZoom":6},{"name":"Shengli","lat":37.46271,"lng":118.49165,"minZoom":6},{"name":"Fīrozābād","lat":27.15092,"lng":78.39781,"minZoom":6},{"name":"Al Fayyūm","lat":29.30995,"lng":30.8418,"minZoom":6},{"name":"Porto Velho","lat":-8.76194,"lng":-63.90389,"minZoom":6},{"name":"San Salvador de Jujuy","lat":-24.19457,"lng":-65.29712,"minZoom":6},{"name":"Brakpan","lat":-26.23656,"lng":28.36938,"minZoom":6},{"name":"Stockton","lat":37.9577,"lng":-121.29078,"minZoom":6},{"name":"Mandaluyong City","lat":14.5832,"lng":121.0409,"minZoom":6},{"name":"Nizāmābād","lat":18.67154,"lng":78.0988,"minZoom":6},{"name":"Kulti","lat":23.73166,"lng":86.84372,"minZoom":6},{"name":"Ciudad Victoria","lat":23.74174,"lng":-99.14599,"minZoom":6},{"name":"Tláhuac","lat":19.28689,"lng":-99.00507,"minZoom":6},{"name":"Franca","lat":-20.53861,"lng":-47.40083,"minZoom":6},{"name":"Rājahmundry","lat":17.00517,"lng":81.77784,"minZoom":6},{"name":"Pittsburgh","lat":40.44062,"lng":-79.99589,"minZoom":6},{"name":"Craiova","lat":44.31667,"lng":23.8,"minZoom":6},{"name":"Constanţa","lat":44.18073,"lng":28.63432,"minZoom":6},{"name":"Saransk","lat":54.1838,"lng":45.1749,"minZoom":6},{"name":"Mazār-e Sharīf","lat":36.70904,"lng":67.11087,"minZoom":6},{"name":"Barddhamān","lat":23.25572,"lng":87.85691,"minZoom":6},{"name":"Malmö","lat":55.60587,"lng":13.00073,"minZoom":6},{"name":"Gujrat","lat":32.5742,"lng":74.07542,"minZoom":6},{"name":"Naha","lat":26.21667,"lng":127.68333,"minZoom":6},{"name":"Brest","lat":52.09755,"lng":23.68775,"minZoom":6},{"name":"Mardan","lat":34.19794,"lng":72.04965,"minZoom":6},{"name":"Surgut","lat":61.25,"lng":73.41667,"minZoom":6},{"name":"Swansea","lat":51.62079,"lng":-3.94323,"minZoom":6},{"name":"Xinyuan","lat":43.42649,"lng":83.24959,"minZoom":6},{"name":"Yangshuo","lat":24.78081,"lng":110.48967,"minZoom":6},{"name":"Kyzylorda","lat":44.85278,"lng":65.50917,"minZoom":6},{"name":"George Town","lat":5.41123,"lng":100.33543,"minZoom":6},{"name":"Biñan","lat":14.34267,"lng":121.08071,"minZoom":6},{"name":"Malir Cantonment","lat":24.94343,"lng":67.20591,"minZoom":6},{"name":"Winejok","lat":9.01222,"lng":27.57081,"minZoom":6},{"name":"Batikent","lat":39.96833,"lng":32.73083,"minZoom":6},{"name":"Mérida","lat":8.58972,"lng":-71.15611,"minZoom":6},{"name":"Angeles City","lat":15.15,"lng":120.58333,"minZoom":6},{"name":"Bradford","lat":53.79391,"lng":-1.75206,"minZoom":6},{"name":"Santol","lat":15.16222,"lng":120.5675,"minZoom":6},{"name":"Anchorage","lat":61.21806,"lng":-149.90028,"minZoom":6},{"name":"Ciudad Obregón","lat":27.48642,"lng":-109.94083,"minZoom":6},{"name":"Kasugai","lat":35.24762,"lng":136.97229,"minZoom":6},{"name":"Jember","lat":-8.17211,"lng":113.69953,"minZoom":6},{"name":"Aomori","lat":40.81667,"lng":140.73333,"minZoom":6},{"name":"Ōtsu","lat":35,"lng":135.86667,"minZoom":6},{"name":"Bārāsat","lat":22.72154,"lng":88.48198,"minZoom":6},{"name":"Elazığ","lat":38.67431,"lng":39.22321,"minZoom":6},{"name":"Okanagan","lat":50.36386,"lng":-119.34997,"minZoom":6},{"name":"Cherkasy","lat":49.42854,"lng":32.06207,"minZoom":6},{"name":"Vigo","lat":42.23282,"lng":-8.72264,"minZoom":6},{"name":"Akashi","lat":34.65524,"lng":135.00687,"minZoom":6},{"name":"Bāli","lat":22.64859,"lng":88.34115,"minZoom":6},{"name":"Cincinnati","lat":39.12711,"lng":-84.51439,"minZoom":6},{"name":"Hisar","lat":29.15394,"lng":75.72294,"minZoom":6},{"name":"Rāmpur","lat":28.81014,"lng":79.02699,"minZoom":6},{"name":"Yokkaichi","lat":34.96667,"lng":136.61667,"minZoom":6},{"name":"Yeosu","lat":34.76062,"lng":127.66215,"minZoom":6},{"name":"Southend-on-Sea","lat":51.53782,"lng":0.71433,"minZoom":6},{"name":"Morioka","lat":39.7,"lng":141.15,"minZoom":6},{"name":"Viña del Mar","lat":-33.02457,"lng":-71.55183,"minZoom":6},{"name":"Sumy","lat":50.9216,"lng":34.80029,"minZoom":6},{"name":"Fukushima","lat":37.75,"lng":140.46667,"minZoom":6},{"name":"Galaţi","lat":45.43687,"lng":28.05028,"minZoom":6},{"name":"Blumenau","lat":-26.91944,"lng":-49.06611,"minZoom":6},{"name":"Greater Noida","lat":28.49615,"lng":77.53601,"minZoom":6},{"name":"Noida","lat":28.58,"lng":77.33,"minZoom":6},{"name":"Foz do Iguaçu","lat":-25.54778,"lng":-54.58806,"minZoom":6},{"name":"Al Hufūf","lat":25.36467,"lng":49.58764,"minZoom":6},{"name":"Kākināda","lat":16.96036,"lng":82.23809,"minZoom":6},{"name":"Pānīpat","lat":29.38747,"lng":76.96825,"minZoom":6},{"name":"Semey","lat":50.42675,"lng":80.26669,"minZoom":6},{"name":"Makurdi","lat":7.73375,"lng":8.52139,"minZoom":6},{"name":"Wollongong","lat":-34.424,"lng":150.89345,"minZoom":6},{"name":"Ponta Grossa","lat":-25.095,"lng":-50.16194,"minZoom":6},{"name":"Minna","lat":9.61524,"lng":6.54776,"minZoom":6},{"name":"Białystok","lat":53.13333,"lng":23.16433,"minZoom":6},{"name":"Mbeya","lat":-8.9,"lng":33.45,"minZoom":6},{"name":"Mueang Nonthaburi","lat":13.86075,"lng":100.51477,"minZoom":6},{"name":"Gumi","lat":36.1136,"lng":128.336,"minZoom":6},{"name":"Tambov","lat":52.73169,"lng":41.44326,"minZoom":6},{"name":"Catania","lat":37.49223,"lng":15.07041,"minZoom":6},{"name":"Al Mubarraz","lat":25.40768,"lng":49.59028,"minZoom":6},{"name":"Bafoussam","lat":5.47775,"lng":10.41759,"minZoom":6},{"name":"Kasur","lat":31.11866,"lng":74.45025,"minZoom":6},{"name":"Utrecht","lat":52.09083,"lng":5.12222,"minZoom":6},{"name":"Xiuying","lat":20.00073,"lng":110.29359,"minZoom":6},{"name":"Paulista","lat":-7.94083,"lng":-34.87306,"minZoom":6},{"name":"Al Ḩillah","lat":32.46367,"lng":44.41963,"minZoom":6},{"name":"Limeira","lat":-22.56472,"lng":-47.40167,"minZoom":6},{"name":"Parbhani","lat":19.26855,"lng":76.77081,"minZoom":6},{"name":"Victoria","lat":48.4359,"lng":-123.35155,"minZoom":6},{"name":"Beihai","lat":21.48333,"lng":109.1,"minZoom":6},{"name":"Huizhou","lat":23.11147,"lng":114.41523,"minZoom":6},{"name":"Zeytinburnu","lat":40.99441,"lng":28.90417,"minZoom":6},{"name":"Tsuen Wan","lat":22.37137,"lng":114.11329,"minZoom":6},{"name":"Ironville","lat":38.45647,"lng":-82.69238,"minZoom":6},{"name":"Meads","lat":38.41258,"lng":-82.70905,"minZoom":6},{"name":"Sétif","lat":36.19112,"lng":5.41373,"minZoom":6},{"name":"Safi","lat":32.29939,"lng":-9.23718,"minZoom":6},{"name":"Sinŭiju","lat":40.10056,"lng":124.39806,"minZoom":6},{"name":"Sector 4","lat":44.37571,"lng":26.12085,"minZoom":6},{"name":"Huế","lat":16.4619,"lng":107.59546,"minZoom":6},{"name":"Darbhanga","lat":26.15216,"lng":85.89707,"minZoom":6},{"name":"Marienthal","lat":53.56667,"lng":10.08333,"minZoom":6},{"name":"Adapazarı","lat":40.78056,"lng":30.40333,"minZoom":6},{"name":"Sultanbeyli","lat":40.96072,"lng":29.27067,"minZoom":6},{"name":"Henderson","lat":36.0397,"lng":-114.98194,"minZoom":6},{"name":"Greensboro","lat":36.07264,"lng":-79.79198,"minZoom":6},{"name":"Viamão","lat":-30.08111,"lng":-51.02333,"minZoom":6},{"name":"Zagazig","lat":30.58768,"lng":31.502,"minZoom":6},{"name":"Saint Paul","lat":44.94441,"lng":-93.09327,"minZoom":6},{"name":"Kuala Terengganu","lat":5.3302,"lng":103.1408,"minZoom":6},{"name":"Ismailia","lat":30.60427,"lng":32.27225,"minZoom":6},{"name":"Alto Barinas","lat":8.5931,"lng":-70.2261,"minZoom":6},{"name":"Dihok","lat":36.86709,"lng":42.98845,"minZoom":6},{"name":"Karlsruhe","lat":49.00937,"lng":8.40444,"minZoom":6},{"name":"Port Moresby","lat":-9.47723,"lng":147.15089,"minZoom":6},{"name":"Plano","lat":33.01984,"lng":-96.69889,"minZoom":6},{"name":"Ichihara","lat":35.51667,"lng":140.08333,"minZoom":6},{"name":"Iksan","lat":35.94389,"lng":126.95444,"minZoom":6},{"name":"Nha Trang","lat":12.24507,"lng":109.19432,"minZoom":6},{"name":"Suzano","lat":-23.5425,"lng":-46.31083,"minZoom":6},{"name":"Alwar","lat":27.56246,"lng":76.625,"minZoom":6},{"name":"Cainta","lat":14.5786,"lng":121.1222,"minZoom":6},{"name":"Pétionville","lat":18.5125,"lng":-72.28528,"minZoom":6},{"name":"Maebashi","lat":36.4,"lng":139.08333,"minZoom":6},{"name":"Bilāspur","lat":22.08005,"lng":82.15543,"minZoom":6},{"name":"Logan City","lat":-27.63917,"lng":153.10944,"minZoom":6},{"name":"Valparaíso","lat":-33.036,"lng":-71.62963,"minZoom":6},{"name":"Palu","lat":-0.90833,"lng":119.87083,"minZoom":6},{"name":"Kupang","lat":-10.17083,"lng":123.60694,"minZoom":6},{"name":"Zhytomyr","lat":50.26487,"lng":28.67669,"minZoom":6},{"name":"Newark","lat":40.73566,"lng":-74.17237,"minZoom":6},{"name":"Itagüí","lat":6.18461,"lng":-75.59913,"minZoom":6},{"name":"Nicolás Romero","lat":19.64177,"lng":-99.3068,"minZoom":6},{"name":"Gebze","lat":40.80276,"lng":29.43068,"minZoom":6},{"name":"Narsingdi","lat":23.92298,"lng":90.71768,"minZoom":6},{"name":"Batna","lat":35.55597,"lng":6.17414,"minZoom":6},{"name":"Chuzhou","lat":32.32194,"lng":118.29778,"minZoom":6},{"name":"Merkezefendi","lat":37.80544,"lng":29.04236,"minZoom":6},{"name":"Ichinomiya","lat":35.3,"lng":136.8,"minZoom":6},{"name":"Tacna","lat":-18.01465,"lng":-70.25362,"minZoom":6},{"name":"Hamburg-Nord","lat":53.58935,"lng":9.984,"minZoom":6},{"name":"Mingora","lat":34.7795,"lng":72.36265,"minZoom":6},{"name":"Toledo","lat":41.66394,"lng":-83.55521,"minZoom":6},{"name":"Ensenada","lat":31.87149,"lng":-116.60071,"minZoom":6},{"name":"Efon-Alaaye","lat":7.65649,"lng":4.92235,"minZoom":6},{"name":"Yoshkar-Ola","lat":56.63877,"lng":47.89078,"minZoom":6},{"name":"Taganrog","lat":47.23617,"lng":38.89688,"minZoom":6},{"name":"Santa Teresa del Tuy","lat":10.23291,"lng":-66.66474,"minZoom":6},{"name":"Horlivka","lat":48.33576,"lng":38.05325,"minZoom":6},{"name":"Windsor","lat":42.30008,"lng":-83.01654,"minZoom":6},{"name":"Coacalco","lat":19.62923,"lng":-99.10689,"minZoom":6},{"name":"Ilesa","lat":7.62789,"lng":4.74161,"minZoom":6},{"name":"Kostroma","lat":57.76647,"lng":40.92686,"minZoom":6},{"name":"Gijón","lat":43.53573,"lng":-5.66152,"minZoom":6},{"name":"Bari","lat":41.12066,"lng":16.86982,"minZoom":6},{"name":"Lincoln","lat":40.8,"lng":-96.66696,"minZoom":6},{"name":"Khomeynī Shahr","lat":32.6856,"lng":51.53609,"minZoom":6},{"name":"Sfax","lat":34.74056,"lng":10.76028,"minZoom":6},{"name":"Nantes","lat":47.21725,"lng":-1.55336,"minZoom":6},{"name":"Cuenca","lat":-2.90055,"lng":-79.00453,"minZoom":6},{"name":"Owo","lat":7.1962,"lng":5.58681,"minZoom":6},{"name":"Bahía Blanca","lat":-38.71959,"lng":-62.27243,"minZoom":6},{"name":"Sukabumi","lat":-6.91806,"lng":106.92667,"minZoom":6},{"name":"Braşov","lat":45.64861,"lng":25.60613,"minZoom":6},{"name":"Komsomolsk-on-Amur","lat":50.55034,"lng":137.00995,"minZoom":6},{"name":"Hakodate","lat":41.77583,"lng":140.73667,"minZoom":6},{"name":"Bab Ezzouar","lat":36.72615,"lng":3.18291,"minZoom":6},{"name":"Mokolo","lat":10.74244,"lng":13.80227,"minZoom":6},{"name":"Caucaia","lat":-3.73611,"lng":-38.65306,"minZoom":6},{"name":"Strasbourg","lat":48.58392,"lng":7.74553,"minZoom":6},{"name":"Belfast","lat":54.59682,"lng":-5.92541,"minZoom":6},{"name":"Kashgar","lat":39.47066,"lng":75.98951,"minZoom":6},{"name":"Ramadi","lat":33.42056,"lng":43.30778,"minZoom":6},{"name":"Ichalkaranji","lat":16.69117,"lng":74.46054,"minZoom":6},{"name":"Ibaraki","lat":34.81641,"lng":135.56828,"minZoom":6},{"name":"Yao","lat":34.61667,"lng":135.6,"minZoom":6},{"name":"Herāt","lat":34.34817,"lng":62.19967,"minZoom":6},{"name":"Guantánamo","lat":20.14444,"lng":-75.20917,"minZoom":6},{"name":"Nal’chik","lat":43.49806,"lng":43.61889,"minZoom":6},{"name":"Baguio","lat":16.41639,"lng":120.59306,"minZoom":6},{"name":"Petrópolis","lat":-22.505,"lng":-43.17861,"minZoom":6},{"name":"Ar Rayyān","lat":25.29194,"lng":51.42444,"minZoom":6},{"name":"Wiesbaden","lat":50.08258,"lng":8.24932,"minZoom":6},{"name":"Montería","lat":8.74798,"lng":-75.88143,"minZoom":6},{"name":"Ljubljana","lat":46.05108,"lng":14.50513,"minZoom":6},{"name":"Hafar Al-Batin","lat":28.43279,"lng":45.97077,"minZoom":6},{"name":"Kakogawachō-honmachi","lat":34.76943,"lng":134.82905,"minZoom":6},{"name":"Sector 5","lat":44.38808,"lng":26.07144,"minZoom":6},{"name":"Tasikmalaya","lat":-7.3274,"lng":108.2207,"minZoom":6},{"name":"Bijapur","lat":16.82442,"lng":75.71537,"minZoom":6},{"name":"Orlando","lat":28.53834,"lng":-81.37924,"minZoom":6},{"name":"Linyi","lat":35.06306,"lng":118.34278,"minZoom":6},{"name":"Derby","lat":52.92277,"lng":-1.47663,"minZoom":6},{"name":"San Pedro","lat":14.3595,"lng":121.0473,"minZoom":6},{"name":"Münster","lat":51.96236,"lng":7.62571,"minZoom":6},{"name":"Gelsenkirchen","lat":51.50508,"lng":7.09654,"minZoom":6},{"name":"Mokpo","lat":34.81282,"lng":126.39181,"minZoom":6},{"name":"Santa Catarina","lat":25.67325,"lng":-100.45813,"minZoom":6},{"name":"Russeifa","lat":32.01778,"lng":36.04639,"minZoom":6},{"name":"Windhoek","lat":-22.55941,"lng":17.08323,"minZoom":6},{"name":"Tshikapa","lat":-6.41621,"lng":20.79995,"minZoom":6},{"name":"Kafr ad Dawwār","lat":31.13379,"lng":30.12969,"minZoom":6},{"name":"Tokushima","lat":34.06667,"lng":134.56667,"minZoom":6},{"name":"Haifa","lat":32.81841,"lng":34.9885,"minZoom":6},{"name":"Sterlitamak","lat":53.62462,"lng":55.95015,"minZoom":6},{"name":"Ha'il","lat":27.52188,"lng":41.69073,"minZoom":6},{"name":"Eixample","lat":41.38896,"lng":2.16179,"minZoom":6},{"name":"Bagerhat","lat":22.65657,"lng":89.79123,"minZoom":6},{"name":"Chengzhong","lat":30.94454,"lng":113.55284,"minZoom":6},{"name":"Wuzhou","lat":23.48333,"lng":111.31667,"minZoom":6},{"name":"Chula Vista","lat":32.64005,"lng":-117.0842,"minZoom":6},{"name":"Hulan Ergi","lat":47.20417,"lng":123.63333,"minZoom":6},{"name":"Aizawl","lat":23.72894,"lng":92.71791,"minZoom":6},{"name":"Aachen","lat":50.77664,"lng":6.08342,"minZoom":6},{"name":"Sumqayıt","lat":40.58972,"lng":49.66861,"minZoom":6},{"name":"Mantampay","lat":8.16667,"lng":124.21667,"minZoom":6},